{"airports":[{"identifier":"00A","name":"Total Rf","latitude":40.07083333,"longitude":-74.93361111,"elevationFeet":9,"isPublic":true,"faaIdentifier":"00A","icaoIdentifier":null,"stateCode":"PA","city":"Bensalem"},{"identifier":"00AA","name":"Aero B Ranch","latitude":38.70402222,"longitude":-101.47391111,"elevationFeet":3435,"isPublic":false,"faaIdentifier":"00AA","icaoIdentifier":null,"stateCode":"KS","city":"Leoti"},{"identifier":"00AK","name":"Lowell Fld","latitude":59.94888888,"longitude":-151.69222222,"elevationFeet":252,"isPublic":false,"faaIdentifier":"00AK","icaoIdentifier":null,"stateCode":"AK","city":"Anchor Point"},{"identifier":"00AL","name":"Epps Airpark","latitude":34.86481027,"longitude":-86.7702775,"elevationFeet":820,"isPublic":false,"faaIdentifier":"00AL","icaoIdentifier":null,"stateCode":"AL","city":"Harvest"},{"identifier":"00AN","name":"Katmai Lodge","latitude":59.09347222,"longitude":-156.45583333,"elevationFeet":80,"isPublic":false,"faaIdentifier":"00AN","icaoIdentifier":null,"stateCode":"AK","city":"King Salmon"},{"identifier":"00AR","name":"Arland","latitude":38.96966027,"longitude":-97.6015615,"elevationFeet":1352,"isPublic":false,"faaIdentifier":"00AR","icaoIdentifier":null,"stateCode":"KS","city":"Bennington"},{"identifier":"00AS","name":"Fulton","latitude":34.94280277,"longitude":-97.81801944,"elevationFeet":1100,"isPublic":false,"faaIdentifier":"00AS","icaoIdentifier":null,"stateCode":"OK","city":"Alex"},{"identifier":"00C","name":"Animas Air Park","latitude":37.20317833,"longitude":-107.86919527,"elevationFeet":6684,"isPublic":true,"faaIdentifier":"00C","icaoIdentifier":null,"stateCode":"CO","city":"Durango"},{"identifier":"00CA","name":"Goldstone /Gts/","latitude":35.35497222,"longitude":-116.88520833,"elevationFeet":3038,"isPublic":false,"faaIdentifier":"00CA","icaoIdentifier":null,"stateCode":"CA","city":"Barstow"},{"identifier":"00CL","name":"Williams Ag","latitude":39.42718888,"longitude":-121.76342777,"elevationFeet":87,"isPublic":false,"faaIdentifier":"00CL","icaoIdentifier":null,"stateCode":"CA","city":"Biggs"},{"identifier":"00CN","name":"Kitchen Creek Helibase","latitude":32.72737361,"longitude":-116.45974166,"elevationFeet":3350,"isPublic":false,"faaIdentifier":"00CN","icaoIdentifier":null,"stateCode":"CA","city":"Pine Valley"},{"identifier":"00F","name":"Broadus","latitude":45.47047222,"longitude":-105.45713888,"elevationFeet":3282,"isPublic":true,"faaIdentifier":"00F","icaoIdentifier":null,"stateCode":"MT","city":"Broadus"},{"identifier":"00FA","name":"Grass Patch","latitude":28.64554722,"longitude":-82.218975,"elevationFeet":53,"isPublic":false,"faaIdentifier":"00FA","icaoIdentifier":null,"stateCode":"FL","city":"Bushnell"},{"identifier":"00FL","name":"River Oak","latitude":27.23087972,"longitude":-80.96923055,"elevationFeet":35,"isPublic":false,"faaIdentifier":"00FL","icaoIdentifier":null,"stateCode":"FL","city":"Okeechobee"},{"identifier":"00GA","name":"Lt World","latitude":33.7675,"longitude":-84.06833333,"elevationFeet":700,"isPublic":false,"faaIdentifier":"00GA","icaoIdentifier":null,"stateCode":"GA","city":"Lithonia"},{"identifier":"00GE","name":"Caffrey","latitude":33.88801944,"longitude":-84.73694722,"elevationFeet":957,"isPublic":false,"faaIdentifier":"00GE","icaoIdentifier":null,"stateCode":"GA","city":"Hiram"},{"identifier":"00ID","name":"Delta Shores","latitude":48.14527777,"longitude":-116.21444444,"elevationFeet":2064,"isPublic":false,"faaIdentifier":"00ID","icaoIdentifier":null,"stateCode":"ID","city":"Clark Fork"},{"identifier":"00IG","name":"Goltl","latitude":39.72402777,"longitude":-101.39599444,"elevationFeet":3359,"isPublic":false,"faaIdentifier":"00IG","icaoIdentifier":null,"stateCode":"KS","city":"Mcdonald"},{"identifier":"00IL","name":"Hammer","latitude":41.97836333,"longitude":-89.56038833,"elevationFeet":840,"isPublic":false,"faaIdentifier":"00IL","icaoIdentifier":null,"stateCode":"IL","city":"Polo"},{"identifier":"00IN","name":"St Mary Medical Center","latitude":41.51138888,"longitude":-87.26055555,"elevationFeet":634,"isPublic":false,"faaIdentifier":"00IN","icaoIdentifier":null,"stateCode":"IN","city":"Hobart"},{"identifier":"00IS","name":"Hayenga'S Cant Find Farms","latitude":40.025595,"longitude":-89.12286472,"elevationFeet":820,"isPublic":false,"faaIdentifier":"00IS","icaoIdentifier":null,"stateCode":"IL","city":"Kings"},{"identifier":"00KS","name":"Hayden Farm","latitude":38.72778666,"longitude":-94.93051972,"elevationFeet":1100,"isPublic":false,"faaIdentifier":"00KS","icaoIdentifier":null,"stateCode":"KS","city":"Gardner"},{"identifier":"00LA","name":"Shell Chemical East Site","latitude":30.19194444,"longitude":-90.97916666,"elevationFeet":15,"isPublic":false,"faaIdentifier":"00LA","icaoIdentifier":null,"stateCode":"LA","city":"Gonzales"},{"identifier":"00LS","name":"Lejeune","latitude":30.13627777,"longitude":-92.42936111,"elevationFeet":12,"isPublic":false,"faaIdentifier":"00LS","icaoIdentifier":null,"stateCode":"LA","city":"Esterwood"},{"identifier":"00M","name":"Thigpen Fld","latitude":31.95375,"longitude":-89.23533333,"elevationFeet":351,"isPublic":true,"faaIdentifier":"00M","icaoIdentifier":null,"stateCode":"MS","city":"Bay Springs"},{"identifier":"00MI","name":"The Waldron Way","latitude":43.01583333,"longitude":-83.51843333,"elevationFeet":815,"isPublic":false,"faaIdentifier":"00MI","icaoIdentifier":null,"stateCode":"MI","city":"Davison"},{"identifier":"00MN","name":"Battle Lake Muni","latitude":46.29996027,"longitude":-95.70032416,"elevationFeet":1365,"isPublic":false,"faaIdentifier":"00MN","icaoIdentifier":null,"stateCode":"MN","city":"Battle Lake"},{"identifier":"00MO","name":"Cooper Flying Service","latitude":37.20283472,"longitude":-94.41244777,"elevationFeet":970,"isPublic":false,"faaIdentifier":"00MO","icaoIdentifier":null,"stateCode":"MO","city":"Alba"},{"identifier":"00MT","name":"Livingston Healthcare","latitude":45.67500555,"longitude":-110.52533055,"elevationFeet":4465,"isPublic":false,"faaIdentifier":"00MT","icaoIdentifier":null,"stateCode":"MT","city":"Livingston"},{"identifier":"00N","name":"Bucks","latitude":39.47373919,"longitude":-75.18456752,"elevationFeet":108,"isPublic":true,"faaIdentifier":"00N","icaoIdentifier":null,"stateCode":"NJ","city":"Bridgeton"},{"identifier":"00NC","name":"North Raleigh","latitude":36.08515027,"longitude":-78.37138555,"elevationFeet":348,"isPublic":false,"faaIdentifier":"00NC","icaoIdentifier":null,"stateCode":"NC","city":"Louisburg"},{"identifier":"00NJ","name":"Colgate-Piscataway","latitude":40.52093694,"longitude":-74.4745975,"elevationFeet":78,"isPublic":false,"faaIdentifier":"00NJ","icaoIdentifier":null,"stateCode":"NJ","city":"New Brunswick"},{"identifier":"00NK","name":"Cliche Cove","latitude":44.81186111,"longitude":-73.36980555,"elevationFeet":96,"isPublic":false,"faaIdentifier":"00NK","icaoIdentifier":null,"stateCode":"NY","city":"Beekmantown"},{"identifier":"00NR","name":"Rodanthe Dare County","latitude":35.59475,"longitude":-75.47005555,"elevationFeet":8,"isPublic":false,"faaIdentifier":"00NR","icaoIdentifier":null,"stateCode":"NC","city":"Rodanthe"},{"identifier":"00OH","name":"Good Samaritan Medical Center","latitude":39.20305555,"longitude":-84.67055833,"elevationFeet":668,"isPublic":false,"faaIdentifier":"00OH","icaoIdentifier":null,"stateCode":"OH","city":"Cincinnati"},{"identifier":"00OI","name":"Miami Valley Hospital","latitude":39.74491894,"longitude":-84.18726127,"elevationFeet":847,"isPublic":false,"faaIdentifier":"00OI","icaoIdentifier":null,"stateCode":"OH","city":"Dayton"},{"identifier":"00OK","name":"Gull Bay Landing","latitude":36.198918,"longitude":-96.217682,"elevationFeet":960,"isPublic":false,"faaIdentifier":"00OK","icaoIdentifier":null,"stateCode":"OK","city":"Sandsprings"},{"identifier":"00PN","name":"Ferrell Fld","latitude":41.2995,"longitude":-80.21111111,"elevationFeet":1301,"isPublic":false,"faaIdentifier":"00PN","icaoIdentifier":null,"stateCode":"PA","city":"Mercer"},{"identifier":"00R","name":"Livingston Muni","latitude":30.68586111,"longitude":-95.01791666,"elevationFeet":150,"isPublic":true,"faaIdentifier":"00R","icaoIdentifier":null,"stateCode":"TX","city":"Livingston"},{"identifier":"00S","name":"Mc Kenzie Bridge State","latitude":44.18155555,"longitude":-122.08555555,"elevationFeet":1620,"isPublic":true,"faaIdentifier":"00S","icaoIdentifier":null,"stateCode":"OR","city":"Mc Kenzie Bridge"},{"identifier":"00SC","name":"Flying O","latitude":34.00944444,"longitude":-80.26722222,"elevationFeet":150,"isPublic":false,"faaIdentifier":"00SC","icaoIdentifier":null,"stateCode":"SC","city":"Sumter"},{"identifier":"00SD","name":"Homan Fld","latitude":44.80915833,"longitude":-96.49889722,"elevationFeet":1590,"isPublic":false,"faaIdentifier":"00SD","icaoIdentifier":null,"stateCode":"SD","city":"Gary"},{"identifier":"00TA","name":"Sabine Pilots","latitude":29.93569444,"longitude":-93.9855,"elevationFeet":17,"isPublic":false,"faaIdentifier":"00TA","icaoIdentifier":null,"stateCode":"TX","city":"Port Arthur"},{"identifier":"00TN","name":"Thompson Farms","latitude":36.12045105,"longitude":-86.35953227,"elevationFeet":675,"isPublic":false,"faaIdentifier":"00TN","icaoIdentifier":null,"stateCode":"TN","city":"Lebanon"},{"identifier":"00TS","name":"Alpine Range","latitude":32.60793888,"longitude":-97.24232222,"elevationFeet":670,"isPublic":false,"faaIdentifier":"00TS","icaoIdentifier":null,"stateCode":"TX","city":"Everman"},{"identifier":"00TT","name":"Nowhere","latitude":34.516606,"longitude":-99.9369405,"elevationFeet":1752,"isPublic":false,"faaIdentifier":"00TT","icaoIdentifier":null,"stateCode":"TX","city":"Goodlett"},{"identifier":"00TX","name":"Delva Fld","latitude":32.544452,"longitude":-95.67313,"elevationFeet":545,"isPublic":false,"faaIdentifier":"00TX","icaoIdentifier":null,"stateCode":"TX","city":"Van"},{"identifier":"00U","name":"Big Horn County","latitude":45.74438888,"longitude":-107.66044444,"elevationFeet":3025,"isPublic":true,"faaIdentifier":"00U","icaoIdentifier":null,"stateCode":"MT","city":"Hardin"},{"identifier":"00VA","name":"Vaughan","latitude":36.576,"longitude":-78.99916666,"elevationFeet":551,"isPublic":false,"faaIdentifier":"00VA","icaoIdentifier":null,"stateCode":"VA","city":"Alton"},{"identifier":"00VI","name":"Groundhog Mountain","latitude":36.66333333,"longitude":-80.4995,"elevationFeet":2680,"isPublic":false,"faaIdentifier":"00VI","icaoIdentifier":null,"stateCode":"VA","city":"Hillsville"},{"identifier":"00W","name":"Lower Granite State","latitude":46.67275,"longitude":-117.44166666,"elevationFeet":719,"isPublic":true,"faaIdentifier":"00W","icaoIdentifier":null,"stateCode":"WA","city":"Colfax"},{"identifier":"00WA","name":"Howell","latitude":47.17843055,"longitude":-122.7718,"elevationFeet":150,"isPublic":false,"faaIdentifier":"00WA","icaoIdentifier":null,"stateCode":"WA","city":"Longbranch"},{"identifier":"00WI","name":"Northern Lite","latitude":44.304285,"longitude":-89.05011361,"elevationFeet":860,"isPublic":false,"faaIdentifier":"00WI","icaoIdentifier":null,"stateCode":"WI","city":"Waupaca"},{"identifier":"00WN","name":"Hawks Run","latitude":46.25,"longitude":-117.249,"elevationFeet":2900,"isPublic":false,"faaIdentifier":"00WN","icaoIdentifier":null,"stateCode":"WA","city":"Asotin"},{"identifier":"00WV","name":"Lazy J Aerodrome","latitude":38.82888888,"longitude":-79.86611111,"elevationFeet":2060,"isPublic":false,"faaIdentifier":"00WV","icaoIdentifier":null,"stateCode":"WV","city":"Beverly"},{"identifier":"00WY","name":"Mountain View Rgnl Hospital","latitude":42.84036111,"longitude":-106.22444444,"elevationFeet":5209,"isPublic":false,"faaIdentifier":"00WY","icaoIdentifier":null,"stateCode":"WY","city":"Casper"},{"identifier":"00XA","name":"Weeski Ranch","latitude":30.2240375,"longitude":-96.01415277,"elevationFeet":271,"isPublic":false,"faaIdentifier":"00XA","icaoIdentifier":null,"stateCode":"TX","city":"Hempstead"},{"identifier":"00XS","name":"Sweden Ranch","latitude":27.57575411,"longitude":-98.60071661,"elevationFeet":554,"isPublic":false,"faaIdentifier":"00XS","icaoIdentifier":null,"stateCode":"TX","city":"Benavides"},{"identifier":"01A","name":"Purkeypile","latitude":62.94075555,"longitude":-152.26960972,"elevationFeet":2041,"isPublic":true,"faaIdentifier":"01A","icaoIdentifier":null,"stateCode":"AK","city":"Purkeypile"},{"identifier":"01AA","name":"Donlin Creek","latitude":62.03242277,"longitude":-158.23623166,"elevationFeet":742,"isPublic":false,"faaIdentifier":"01AA","icaoIdentifier":"PFCR","stateCode":"AK","city":"Crooked Creek"},{"identifier":"01AK","name":"Providence Seward Medical Center","latitude":60.10579444,"longitude":-149.44625555,"elevationFeet":120,"isPublic":false,"faaIdentifier":"01AK","icaoIdentifier":null,"stateCode":"AK","city":"Seward"},{"identifier":"01AL","name":"Ware Island","latitude":32.94595611,"longitude":-86.51386833,"elevationFeet":344,"isPublic":false,"faaIdentifier":"01AL","icaoIdentifier":null,"stateCode":"AL","city":"Clanton"},{"identifier":"01AN","name":"Mc Hone Heights","latitude":61.64902777,"longitude":-149.33902777,"elevationFeet":610,"isPublic":false,"faaIdentifier":"01AN","icaoIdentifier":null,"stateCode":"AK","city":"Wasilla"},{"identifier":"01AZ","name":"Yat","latitude":34.60805555,"longitude":-111.86472222,"elevationFeet":3300,"isPublic":false,"faaIdentifier":"01AZ","icaoIdentifier":null,"stateCode":"AZ","city":"Camp Verde"},{"identifier":"01B","name":"Tippecanoe","latitude":41.33305555,"longitude":-85.7675,"elevationFeet":836,"isPublic":true,"faaIdentifier":"01B","icaoIdentifier":null,"stateCode":"IN","city":"Warsaw"},{"identifier":"01CA","name":"Lugo Substation","latitude":34.36823888,"longitude":-117.37007222,"elevationFeet":3733,"isPublic":false,"faaIdentifier":"01CA","icaoIdentifier":null,"stateCode":"CA","city":"Hesperia"},{"identifier":"01CL","name":"Swansboro Country","latitude":38.79990222,"longitude":-120.73437555,"elevationFeet":2594,"isPublic":false,"faaIdentifier":"01CL","icaoIdentifier":null,"stateCode":"CA","city":"Placerville"},{"identifier":"01CN","name":"Coleman Homestead","latitude":62.10698194,"longitude":-150.10929861,"elevationFeet":282,"isPublic":false,"faaIdentifier":"01CN","icaoIdentifier":null,"stateCode":"AK","city":"Talkeetna"},{"identifier":"01CO","name":"St Vincent General Hospital","latitude":39.24496111,"longitude":-106.30275833,"elevationFeet":10175,"isPublic":false,"faaIdentifier":"01CO","icaoIdentifier":null,"stateCode":"CO","city":"Leadville"},{"identifier":"01CT","name":"Berlin Fairgrounds","latitude":41.62663055,"longitude":-72.72716666,"elevationFeet":47,"isPublic":false,"faaIdentifier":"01CT","icaoIdentifier":null,"stateCode":"CT","city":"Berlin"},{"identifier":"01D","name":"Lake Wawasee","latitude":41.40361111,"longitude":-85.70611111,"elevationFeet":859,"isPublic":true,"faaIdentifier":"01D","icaoIdentifier":null,"stateCode":"IN","city":"Syracuse"},{"identifier":"01E","name":"Lake James","latitude":41.7,"longitude":-85.03930555,"elevationFeet":964,"isPublic":true,"faaIdentifier":"01E","icaoIdentifier":null,"stateCode":"IN","city":"Angola"},{"identifier":"01F","name":"Hamilton Lake","latitude":41.55222222,"longitude":-84.91722222,"elevationFeet":900,"isPublic":true,"faaIdentifier":"01F","icaoIdentifier":null,"stateCode":"IN","city":"Hamilton"},{"identifier":"01FA","name":"Rybolt Ranch","latitude":28.58944361,"longitude":-81.14423027,"elevationFeet":55,"isPublic":false,"faaIdentifier":"01FA","icaoIdentifier":null,"stateCode":"FL","city":"Orlando"},{"identifier":"01FD","name":"Advent Health Altamonte Springs","latitude":28.66663888,"longitude":-81.3697,"elevationFeet":86,"isPublic":false,"faaIdentifier":"01FD","icaoIdentifier":null,"stateCode":"FL","city":"Altamonte Springs"},{"identifier":"01FL","name":"Cedar Knoll Flying Ranch","latitude":28.78193611,"longitude":-81.15922777,"elevationFeet":19,"isPublic":false,"faaIdentifier":"01FL","icaoIdentifier":null,"stateCode":"FL","city":"Geneva"},{"identifier":"01G","name":"Perry-Warsaw","latitude":42.74134861,"longitude":-78.05214805,"elevationFeet":1558,"isPublic":true,"faaIdentifier":"01G","icaoIdentifier":null,"stateCode":"NY","city":"Perry"},{"identifier":"01GA","name":"Medical Center","latitude":32.48120277,"longitude":-84.98031666,"elevationFeet":319,"isPublic":false,"faaIdentifier":"01GA","icaoIdentifier":null,"stateCode":"GA","city":"Columbus"},{"identifier":"01GE","name":"The Farm","latitude":32.67515138,"longitude":-82.77099533,"elevationFeet":369,"isPublic":false,"faaIdentifier":"01GE","icaoIdentifier":null,"stateCode":"GA","city":"Wrightsville"},{"identifier":"01H","name":"Lake Maxinkuckee","latitude":41.20611111,"longitude":-86.40444444,"elevationFeet":733,"isPublic":true,"faaIdentifier":"01H","icaoIdentifier":null,"stateCode":"IN","city":"Culver"},{"identifier":"01ID","name":"Lava Hot Springs Airpark","latitude":42.6080018,"longitude":-112.03307902,"elevationFeet":5300,"isPublic":false,"faaIdentifier":"01ID","icaoIdentifier":null,"stateCode":"ID","city":"Lava Hot Springs"},{"identifier":"01IL","name":"Hoopeston Community Meml Hospital","latitude":40.45789722,"longitude":-87.65811111,"elevationFeet":583,"isPublic":false,"faaIdentifier":"01IL","icaoIdentifier":null,"stateCode":"IL","city":"Hoopeston"},{"identifier":"01IN","name":"Community Hospital","latitude":40.13315277,"longitude":-85.69442222,"elevationFeet":890,"isPublic":false,"faaIdentifier":"01IN","icaoIdentifier":null,"stateCode":"IN","city":"Anderson"},{"identifier":"01J","name":"Hilliard Airpark","latitude":30.68596666,"longitude":-81.90634305,"elevationFeet":59,"isPublic":true,"faaIdentifier":"01J","icaoIdentifier":null,"stateCode":"FL","city":"Hilliard"},{"identifier":"01K","name":"Caldwell Muni","latitude":37.03661111,"longitude":-97.58555555,"elevationFeet":1157,"isPublic":true,"faaIdentifier":"01K","icaoIdentifier":null,"stateCode":"KS","city":"Caldwell"},{"identifier":"01KY","name":"Lourdes Hospital","latitude":37.05166666,"longitude":-88.64694444,"elevationFeet":419,"isPublic":false,"faaIdentifier":"01KY","icaoIdentifier":null,"stateCode":"KY","city":"Paducah"},{"identifier":"01L","name":"Bass Lake","latitude":41.22888888,"longitude":-86.58166666,"elevationFeet":713,"isPublic":true,"faaIdentifier":"01L","icaoIdentifier":null,"stateCode":"IN","city":"Winona"},{"identifier":"01LA","name":"Barham","latitude":32.63902694,"longitude":-91.77373611,"elevationFeet":90,"isPublic":false,"faaIdentifier":"01LA","icaoIdentifier":null,"stateCode":"LA","city":"Oak Ridge"},{"identifier":"01M","name":"Tishomingo County","latitude":34.49179138,"longitude":-88.2012025,"elevationFeet":584,"isPublic":true,"faaIdentifier":"01M","icaoIdentifier":null,"stateCode":"MS","city":"Belmont"},{"identifier":"01MA","name":"Compaq Andover","latitude":42.62509222,"longitude":-71.18006944,"elevationFeet":140,"isPublic":false,"faaIdentifier":"01MA","icaoIdentifier":null,"stateCode":"MA","city":"Andover"},{"identifier":"01MD","name":"Annapolis","latitude":38.99916666,"longitude":-76.45596666,"elevationFeet":0,"isPublic":false,"faaIdentifier":"01MD","icaoIdentifier":null,"stateCode":"MD","city":"Annapolis"},{"identifier":"01ME","name":"St Peters","latitude":46.77888888,"longitude":-68.50027777,"elevationFeet":608,"isPublic":false,"faaIdentifier":"01ME","icaoIdentifier":null,"stateCode":"ME","city":"Portage Lake"},{"identifier":"01MI","name":"Flow Through Trml","latitude":43.04940833,"longitude":-83.67596111,"elevationFeet":736,"isPublic":false,"faaIdentifier":"01MI","icaoIdentifier":null,"stateCode":"MI","city":"Flint"},{"identifier":"01MN","name":"Barnes","latitude":47.89963777,"longitude":-92.55738944,"elevationFeet":1358,"isPublic":false,"faaIdentifier":"01MN","icaoIdentifier":null,"stateCode":"MN","city":"Cook"},{"identifier":"01MT","name":"Crystal Lakes Resort","latitude":48.78913194,"longitude":-114.88043638,"elevationFeet":3141,"isPublic":false,"faaIdentifier":"01MT","icaoIdentifier":null,"stateCode":"MT","city":"Fortine"},{"identifier":"01MU","name":"Nwmc/Houghton","latitude":32.19674722,"longitude":-110.77514166,"elevationFeet":2873,"isPublic":false,"faaIdentifier":"01MU","icaoIdentifier":null,"stateCode":"AZ","city":"Tucson"},{"identifier":"01NC","name":"Topsail Airpark","latitude":34.47527777,"longitude":-77.58138888,"elevationFeet":65,"isPublic":false,"faaIdentifier":"01NC","icaoIdentifier":null,"stateCode":"NC","city":"Holly Ridge"},{"identifier":"01NH","name":"Moore Airfield","latitude":43.64451666,"longitude":-72.08703055,"elevationFeet":835,"isPublic":false,"faaIdentifier":"01NH","icaoIdentifier":null,"stateCode":"NH","city":"Canaan"},{"identifier":"01NK","name":"Granville","latitude":43.42294444,"longitude":-73.268025,"elevationFeet":421,"isPublic":false,"faaIdentifier":"01NK","icaoIdentifier":null,"stateCode":"NY","city":"Granville"},{"identifier":"01NM","name":"Champion Ranch","latitude":33.00861111,"longitude":-104.54027777,"elevationFeet":3630,"isPublic":false,"faaIdentifier":"01NM","icaoIdentifier":null,"stateCode":"NM","city":"Artesia"},{"identifier":"01NR","name":"Mcgee 01","latitude":34.19626666,"longitude":-77.91989444,"elevationFeet":40,"isPublic":false,"faaIdentifier":"01NR","icaoIdentifier":null,"stateCode":"NC","city":"Wilmington"},{"identifier":"01NV","name":"Lantana Ranch","latitude":38.76388888,"longitude":-119.02722222,"elevationFeet":4600,"isPublic":false,"faaIdentifier":"01NV","icaoIdentifier":null,"stateCode":"NV","city":"Yerington"},{"identifier":"01NY","name":"Nuvance Health Vassar Brothers Medical Center","latitude":41.69178055,"longitude":-73.93589444,"elevationFeet":245,"isPublic":false,"faaIdentifier":"01NY","icaoIdentifier":null,"stateCode":"NY","city":"Poughkeepsie"},{"identifier":"01OH","name":"Atrium Medical Center","latitude":39.49747222,"longitude":-84.31391666,"elevationFeet":775,"isPublic":false,"faaIdentifier":"01OH","icaoIdentifier":null,"stateCode":"OH","city":"Middletown"},{"identifier":"01OI","name":"Galion Community Hospital","latitude":40.73026944,"longitude":-82.80200277,"elevationFeet":1140,"isPublic":false,"faaIdentifier":"01OI","icaoIdentifier":null,"stateCode":"OH","city":"Galion"},{"identifier":"01OK","name":"Merrill Ranch","latitude":35.89535277,"longitude":-96.02612222,"elevationFeet":706,"isPublic":false,"faaIdentifier":"01OK","icaoIdentifier":null,"stateCode":"OK","city":"Mounds"},{"identifier":"01OL","name":"Spring Creek Ranch East","latitude":34.37256977,"longitude":-96.71603719,"elevationFeet":1060,"isPublic":false,"faaIdentifier":"01OL","icaoIdentifier":null,"stateCode":"OK","city":"Tishomingo"},{"identifier":"01OR","name":"Grande Ronde Hospital Ems","latitude":45.31970555,"longitude":-118.10541944,"elevationFeet":2895,"isPublic":false,"faaIdentifier":"01OR","icaoIdentifier":null,"stateCode":"OR","city":"La Grande"},{"identifier":"01PA","name":"Powell Kaiser","latitude":40.36248611,"longitude":-79.16548055,"elevationFeet":1500,"isPublic":false,"faaIdentifier":"01PA","icaoIdentifier":null,"stateCode":"PA","city":"Bolivar"},{"identifier":"01PS","name":"Nort'S Resort","latitude":41.59590833,"longitude":-76.02964444,"elevationFeet":1040,"isPublic":false,"faaIdentifier":"01PS","icaoIdentifier":null,"stateCode":"PA","city":"Meshoppen"},{"identifier":"01SC","name":"York","latitude":35.03207944,"longitude":-81.25277777,"elevationFeet":779,"isPublic":false,"faaIdentifier":"01SC","icaoIdentifier":null,"stateCode":"SC","city":"York"},{"identifier":"01TA","name":"Hd Farm & Ranch","latitude":30.84927325,"longitude":-98.20292263,"elevationFeet":1409,"isPublic":false,"faaIdentifier":"01TA","icaoIdentifier":null,"stateCode":"TX","city":"Burnet"},{"identifier":"01TE","name":"Smith Fld","latitude":32.73762916,"longitude":-96.42804055,"elevationFeet":505,"isPublic":false,"faaIdentifier":"01TE","icaoIdentifier":null,"stateCode":"TX","city":"Forney"},{"identifier":"01TN","name":"Colonial Air Park","latitude":34.99592611,"longitude":-89.73064,"elevationFeet":370,"isPublic":false,"faaIdentifier":"01TN","icaoIdentifier":null,"stateCode":"TN","city":"Collierville"},{"identifier":"01TS","name":"Fort Parker Flying Fld","latitude":31.56525,"longitude":-96.54609722,"elevationFeet":500,"isPublic":false,"faaIdentifier":"01TS","icaoIdentifier":null,"stateCode":"TX","city":"Groesbeck"},{"identifier":"01TT","name":"Clute Fire & Ems Station #1","latitude":29.01208736,"longitude":-95.40212555,"elevationFeet":7,"isPublic":false,"faaIdentifier":"01TT","icaoIdentifier":null,"stateCode":"TX","city":"Clute"},{"identifier":"01TX","name":"Beulah Fld","latitude":33.17058055,"longitude":-98.62222222,"elevationFeet":1120,"isPublic":false,"faaIdentifier":"01TX","icaoIdentifier":null,"stateCode":"TX","city":"Graham"},{"identifier":"01U","name":"Duckwater","latitude":38.85325,"longitude":-115.63466666,"elevationFeet":5133,"isPublic":true,"faaIdentifier":"01U","icaoIdentifier":null,"stateCode":"NV","city":"Duckwater"},{"identifier":"01UT","name":"La Sal Junction","latitude":38.30831944,"longitude":-109.39650222,"elevationFeet":6000,"isPublic":false,"faaIdentifier":"01UT","icaoIdentifier":null,"stateCode":"UT","city":"La Sal"},{"identifier":"01VA","name":"Pickles","latitude":39.125,"longitude":-77.925,"elevationFeet":500,"isPublic":false,"faaIdentifier":"01VA","icaoIdentifier":null,"stateCode":"VA","city":"Berryville"},{"identifier":"01WA","name":"Willapa Harbor","latitude":46.66311111,"longitude":-123.81210555,"elevationFeet":174,"isPublic":false,"faaIdentifier":"01WA","icaoIdentifier":null,"stateCode":"WA","city":"South Bend"},{"identifier":"01WI","name":"Kilo Kilo Aerodrome","latitude":44.89621944,"longitude":-89.71925138,"elevationFeet":1269,"isPublic":false,"faaIdentifier":"01WI","icaoIdentifier":null,"stateCode":"WI","city":"Wausau"},{"identifier":"01WN","name":"Whidbey General Hospital","latitude":48.21316666,"longitude":-122.68566666,"elevationFeet":151,"isPublic":false,"faaIdentifier":"01WN","icaoIdentifier":null,"stateCode":"WA","city":"Coupeville"},{"identifier":"01WT","name":"Odyssey","latitude":47.51817777,"longitude":-122.21090833,"elevationFeet":20,"isPublic":false,"faaIdentifier":"01WT","icaoIdentifier":null,"stateCode":"WA","city":"Renton"},{"identifier":"01WY","name":"Keyhole","latitude":44.34720472,"longitude":-104.81080361,"elevationFeet":4250,"isPublic":false,"faaIdentifier":"01WY","icaoIdentifier":null,"stateCode":"WY","city":"Moorcroft"},{"identifier":"01XA","name":"Seton Medical Center Hays","latitude":30.00722222,"longitude":-97.85333333,"elevationFeet":715,"isPublic":false,"faaIdentifier":"01XA","icaoIdentifier":null,"stateCode":"TX","city":"Kyle"},{"identifier":"02A","name":"Chilton County","latitude":32.85048447,"longitude":-86.61143247,"elevationFeet":584,"isPublic":true,"faaIdentifier":"02A","icaoIdentifier":null,"stateCode":"AL","city":"Clanton"},{"identifier":"02AA","name":"Barefoot","latitude":61.50666666,"longitude":-149.91194444,"elevationFeet":160,"isPublic":false,"faaIdentifier":"02AA","icaoIdentifier":null,"stateCode":"AK","city":"Big Lake"},{"identifier":"02AK","name":"Rustic Wilderness","latitude":61.87691111,"longitude":-150.09763888,"elevationFeet":190,"isPublic":false,"faaIdentifier":"02AK","icaoIdentifier":null,"stateCode":"AK","city":"Willow"},{"identifier":"02AL","name":"Bass Fld","latitude":30.37146388,"longitude":-87.76444444,"elevationFeet":61,"isPublic":false,"faaIdentifier":"02AL","icaoIdentifier":null,"stateCode":"AL","city":"Foley"},{"identifier":"02AN","name":"Emerald Ridge","latitude":59.7042233,"longitude":-151.29586905,"elevationFeet":221,"isPublic":false,"faaIdentifier":"02AN","icaoIdentifier":null,"stateCode":"AK","city":"Homer"},{"identifier":"02AR","name":"Mount Moriah Fld","latitude":34.11694444,"longitude":-93.6965,"elevationFeet":400,"isPublic":false,"faaIdentifier":"02AR","icaoIdentifier":null,"stateCode":"AR","city":"Murfreesboro"},{"identifier":"02AZ","name":"Silver Bell Ahp","latitude":32.52086944,"longitude":-111.33579444,"elevationFeet":1868,"isPublic":false,"faaIdentifier":"02AZ","icaoIdentifier":null,"stateCode":"AZ","city":"Marana"},{"identifier":"02C","name":"Capitol Drive","latitude":43.08964136,"longitude":-88.17944525,"elevationFeet":844,"isPublic":true,"faaIdentifier":"02C","icaoIdentifier":null,"stateCode":"WI","city":"Brookfield"},{"identifier":"02CA","name":"Beta Platform Ellen","latitude":33.58269444,"longitude":-118.129,"elevationFeet":122,"isPublic":false,"faaIdentifier":"02CA","icaoIdentifier":null,"stateCode":"CA","city":"Huntington Beach"},{"identifier":"02CD","name":"Shannon Fld","latitude":34.12960555,"longitude":-90.524025,"elevationFeet":165,"isPublic":false,"faaIdentifier":"02CD","icaoIdentifier":null,"stateCode":"MS","city":"Clarksdale"},{"identifier":"02CL","name":"Conover Air Lodge","latitude":34.76109194,"longitude":-119.05899305,"elevationFeet":5160,"isPublic":false,"faaIdentifier":"02CL","icaoIdentifier":null,"stateCode":"CA","city":"Frazier Park"},{"identifier":"02CO","name":"Mc Cullough","latitude":37.64333472,"longitude":-106.04697,"elevationFeet":7615,"isPublic":false,"faaIdentifier":"02CO","icaoIdentifier":null,"stateCode":"CO","city":"Monte Vista"},{"identifier":"02D","name":"Winona Lake","latitude":41.22305555,"longitude":-85.83055555,"elevationFeet":812,"isPublic":true,"faaIdentifier":"02D","icaoIdentifier":null,"stateCode":"IN","city":"Winona Lake"},{"identifier":"02FA","name":"Osborn Airfield","latitude":28.52666638,"longitude":-81.8748,"elevationFeet":121,"isPublic":false,"faaIdentifier":"02FA","icaoIdentifier":null,"stateCode":"FL","city":"Groveland"},{"identifier":"02FD","name":"Triple R Ranch","latitude":30.95234722,"longitude":-86.63541666,"elevationFeet":209,"isPublic":false,"faaIdentifier":"02FD","icaoIdentifier":null,"stateCode":"FL","city":"Baker"},{"identifier":"02FL","name":"Baycare South Florida Baptist Hospital","latitude":28.04583611,"longitude":-82.10263888,"elevationFeet":119,"isPublic":false,"faaIdentifier":"02FL","icaoIdentifier":null,"stateCode":"FL","city":"Plant City"},{"identifier":"02G","name":"Columbiana County","latitude":40.67330555,"longitude":-80.64141666,"elevationFeet":1160,"isPublic":true,"faaIdentifier":"02G","icaoIdentifier":null,"stateCode":"OH","city":"East Liverpool"},{"identifier":"02GA","name":"Doug Bolton Fld","latitude":34.20260805,"longitude":-83.42904888,"elevationFeet":884,"isPublic":false,"faaIdentifier":"02GA","icaoIdentifier":null,"stateCode":"GA","city":"Commerce"},{"identifier":"02GE","name":"Etowah Fields","latitude":34.17527777,"longitude":-84.92444444,"elevationFeet":710,"isPublic":false,"faaIdentifier":"02GE","icaoIdentifier":null,"stateCode":"GA","city":"Euharlee"},{"identifier":"02HI","name":"K3 Helipad","latitude":21.35841388,"longitude":-157.94793888,"elevationFeet":9,"isPublic":false,"faaIdentifier":"02HI","icaoIdentifier":null,"stateCode":"HI","city":"Pearl Harbor"},{"identifier":"02IA","name":"Boone County Hospital","latitude":42.05628333,"longitude":-93.876475,"elevationFeet":1160,"isPublic":false,"faaIdentifier":"02IA","icaoIdentifier":null,"stateCode":"IA","city":"Boone"},{"identifier":"02ID","name":"Morgan Ranch","latitude":44.55545944,"longitude":-115.30510666,"elevationFeet":5634,"isPublic":false,"faaIdentifier":"02ID","icaoIdentifier":null,"stateCode":"ID","city":"Cascade"},{"identifier":"02II","name":"King","latitude":40.06226,"longitude":-86.2105475,"elevationFeet":925,"isPublic":false,"faaIdentifier":"02II","icaoIdentifier":null,"stateCode":"IN","city":"Westfield"},{"identifier":"02IN","name":"Diamond P Fld","latitude":40.20888888,"longitude":-85.54083333,"elevationFeet":904,"isPublic":false,"faaIdentifier":"02IN","icaoIdentifier":null,"stateCode":"IN","city":"Muncie"},{"identifier":"02IS","name":"Advocate Condell Medical Center","latitude":42.27463888,"longitude":-87.95727777,"elevationFeet":762,"isPublic":false,"faaIdentifier":"02IS","icaoIdentifier":null,"stateCode":"IL","city":"Libertyville"},{"identifier":"02KS","name":"Jmj Landing","latitude":39.22221888,"longitude":-96.05527055,"elevationFeet":1170,"isPublic":false,"faaIdentifier":"02KS","icaoIdentifier":null,"stateCode":"KS","city":"St Marys"},{"identifier":"02KT","name":"St Claire Healthcare","latitude":38.18144166,"longitude":-83.44331944,"elevationFeet":781,"isPublic":false,"faaIdentifier":"02KT","icaoIdentifier":null,"stateCode":"KY","city":"Morehead"},{"identifier":"02KY","name":"Boone Ntl Guard","latitude":38.19444444,"longitude":-84.91111111,"elevationFeet":760,"isPublic":false,"faaIdentifier":"02KY","icaoIdentifier":null,"stateCode":"KY","city":"Frankfort"},{"identifier":"02LA","name":"La State Police Troop G","latitude":32.53148333,"longitude":-93.65991666,"elevationFeet":168,"isPublic":false,"faaIdentifier":"02LA","icaoIdentifier":null,"stateCode":"LA","city":"Bossier City"},{"identifier":"02LS","name":"Windy Hill","latitude":30.14827777,"longitude":-91.91971388,"elevationFeet":31,"isPublic":false,"faaIdentifier":"02LS","icaoIdentifier":null,"stateCode":"LA","city":"Broussard"},{"identifier":"02MA","name":"Cuttyhunk","latitude":41.419575,"longitude":-70.92692222,"elevationFeet":9,"isPublic":false,"faaIdentifier":"02MA","icaoIdentifier":null,"stateCode":"MA","city":"Gosnold"},{"identifier":"02MD","name":"Garner Fld","latitude":38.67254444,"longitude":-76.70973888,"elevationFeet":141,"isPublic":false,"faaIdentifier":"02MD","icaoIdentifier":null,"stateCode":"MD","city":"Brandywine"},{"identifier":"02ME","name":"Nadeau'S Airfield","latitude":43.5373,"longitude":-70.92936666,"elevationFeet":700,"isPublic":false,"faaIdentifier":"02ME","icaoIdentifier":null,"stateCode":"ME","city":"Acton"},{"identifier":"02MI","name":"Fairplains Airpark","latitude":43.15700277,"longitude":-85.14892777,"elevationFeet":850,"isPublic":false,"faaIdentifier":"02MI","icaoIdentifier":null,"stateCode":"MI","city":"Greenville"},{"identifier":"02MO","name":"Troy Airpark","latitude":39.04626111,"longitude":-91.02821944,"elevationFeet":630,"isPublic":false,"faaIdentifier":"02MO","icaoIdentifier":null,"stateCode":"MO","city":"Troy"},{"identifier":"02MS","name":"Watts Fld","latitude":34.10010694,"longitude":-90.84677138,"elevationFeet":153,"isPublic":false,"faaIdentifier":"02MS","icaoIdentifier":null,"stateCode":"MS","city":"Rochdale"},{"identifier":"02MT","name":"Steppler Fld","latitude":47.98042777,"longitude":-104.70893611,"elevationFeet":2112,"isPublic":false,"faaIdentifier":"02MT","icaoIdentifier":null,"stateCode":"MT","city":"Culbertson"},{"identifier":"02NH","name":"Iroquois Landing","latitude":44.65713888,"longitude":-71.21905555,"elevationFeet":1180,"isPublic":false,"faaIdentifier":"02NH","icaoIdentifier":null,"stateCode":"NH","city":"Dummer"},{"identifier":"02NJ","name":"Merck Kenilworth Campus","latitude":40.67462222,"longitude":-74.27818611,"elevationFeet":166,"isPublic":false,"faaIdentifier":"02NJ","icaoIdentifier":null,"stateCode":"NJ","city":"Kenilworth"},{"identifier":"02NM","name":"Ffr Animas Landing Strip","latitude":32.09071,"longitude":-108.870735,"elevationFeet":4240,"isPublic":false,"faaIdentifier":"02NM","icaoIdentifier":null,"stateCode":"NM","city":"Animas"},{"identifier":"02NR","name":"Mcgee 02","latitude":35.59201111,"longitude":-77.37743888,"elevationFeet":25,"isPublic":false,"faaIdentifier":"02NR","icaoIdentifier":null,"stateCode":"NC","city":"Greenville"},{"identifier":"02NV","name":"Paiute Meadows","latitude":41.30055555,"longitude":-118.92833333,"elevationFeet":4443,"isPublic":false,"faaIdentifier":"02NV","icaoIdentifier":null,"stateCode":"NV","city":"Winnemucca"},{"identifier":"02NY","name":"Hansen","latitude":43.13213055,"longitude":-75.655225,"elevationFeet":434,"isPublic":false,"faaIdentifier":"02NY","icaoIdentifier":null,"stateCode":"NY","city":"Durhamville"},{"identifier":"02OK","name":"Bobbitt","latitude":36.61888888,"longitude":-97.535,"elevationFeet":1033,"isPublic":false,"faaIdentifier":"02OK","icaoIdentifier":null,"stateCode":"OK","city":"Lamont"},{"identifier":"02OL","name":"War Veterans Colony","latitude":34.81141388,"longitude":-95.30771111,"elevationFeet":807,"isPublic":false,"faaIdentifier":"02OL","icaoIdentifier":null,"stateCode":"OK","city":"Wilburton"},{"identifier":"02PN","name":"Peco Berwyn","latitude":40.05901944,"longitude":-75.46138888,"elevationFeet":278,"isPublic":false,"faaIdentifier":"02PN","icaoIdentifier":null,"stateCode":"PA","city":"Berwyn"},{"identifier":"02PR","name":"Cuylers","latitude":18.45333333,"longitude":-66.36694444,"elevationFeet":15,"isPublic":false,"faaIdentifier":"02PR","icaoIdentifier":null,"stateCode":"PR","city":"Vega Baja"},{"identifier":"02RI","name":"Miramar Residence","latitude":41.457931,"longitude":-71.304886,"elevationFeet":36,"isPublic":false,"faaIdentifier":"02RI","icaoIdentifier":null,"stateCode":"RI","city":"Newport"},{"identifier":"02SC","name":"Harpers","latitude":32.75850194,"longitude":-81.22482472,"elevationFeet":111,"isPublic":false,"faaIdentifier":"02SC","icaoIdentifier":null,"stateCode":"SC","city":"Estill"},{"identifier":"02T","name":"Wise River","latitude":45.77002777,"longitude":-112.98047222,"elevationFeet":5830,"isPublic":true,"faaIdentifier":"02T","icaoIdentifier":null,"stateCode":"MT","city":"Wise River"},{"identifier":"02TN","name":"Ellis Fld","latitude":35.78055555,"longitude":-86.58416666,"elevationFeet":840,"isPublic":false,"faaIdentifier":"02TN","icaoIdentifier":null,"stateCode":"TN","city":"Murfreesboro"},{"identifier":"02TS","name":"El Tesoro Ranch","latitude":28.66264166,"longitude":-98.72309444,"elevationFeet":334,"isPublic":false,"faaIdentifier":"02TS","icaoIdentifier":null,"stateCode":"TX","city":"Charlotte"},{"identifier":"02TX","name":"Nacogdoches Meml Hospital","latitude":31.61272222,"longitude":-94.64758333,"elevationFeet":309,"isPublic":false,"faaIdentifier":"02TX","icaoIdentifier":null,"stateCode":"TX","city":"Nacogdoches"},{"identifier":"02UT","name":"Lucin","latitude":41.3663125,"longitude":-113.84306361,"elevationFeet":4412,"isPublic":false,"faaIdentifier":"02UT","icaoIdentifier":null,"stateCode":"UT","city":"Lucin"},{"identifier":"02WA","name":"Cawleys South Prairie","latitude":47.15232388,"longitude":-122.09400277,"elevationFeet":690,"isPublic":false,"faaIdentifier":"02WA","icaoIdentifier":null,"stateCode":"WA","city":"South Prairie"},{"identifier":"02WI","name":"Beer","latitude":45.03191111,"longitude":-92.65575638,"elevationFeet":920,"isPublic":false,"faaIdentifier":"02WI","icaoIdentifier":null,"stateCode":"WI","city":"Hudson"},{"identifier":"02WN","name":"Fowler Fld","latitude":48.74583333,"longitude":-119.31861111,"elevationFeet":2150,"isPublic":false,"faaIdentifier":"02WN","icaoIdentifier":null,"stateCode":"WA","city":"Tonasket"},{"identifier":"02XA","name":"Jls Farms","latitude":33.59131944,"longitude":-95.88286388,"elevationFeet":675,"isPublic":false,"faaIdentifier":"02XA","icaoIdentifier":null,"stateCode":"TX","city":"Honey Grove"},{"identifier":"02XS","name":"Seidel Ranch","latitude":30.14771305,"longitude":-97.66277916,"elevationFeet":510,"isPublic":false,"faaIdentifier":"02XS","icaoIdentifier":null,"stateCode":"TX","city":"Elroy"},{"identifier":"03AK","name":"Joe Clouds","latitude":60.72722222,"longitude":-151.13277777,"elevationFeet":150,"isPublic":false,"faaIdentifier":"03AK","icaoIdentifier":null,"stateCode":"AK","city":"Kenai"},{"identifier":"03AL","name":"Highland Medical Center","latitude":34.66259722,"longitude":-86.04676666,"elevationFeet":618,"isPublic":false,"faaIdentifier":"03AL","icaoIdentifier":null,"stateCode":"AL","city":"Scottsboro"},{"identifier":"03AN","name":"Alaska Glacier Lodge","latitude":61.43444444,"longitude":-148.76572222,"elevationFeet":342,"isPublic":false,"faaIdentifier":"03AN","icaoIdentifier":null,"stateCode":"AK","city":"Palmer"},{"identifier":"03AR","name":"Hscmh","latitude":34.358,"longitude":-92.78606388,"elevationFeet":350,"isPublic":false,"faaIdentifier":"03AR","icaoIdentifier":null,"stateCode":"AR","city":"Malvern"},{"identifier":"03AZ","name":"Thompson Intl Aviation","latitude":31.4334325,"longitude":-110.08396583,"elevationFeet":4275,"isPublic":false,"faaIdentifier":"03AZ","icaoIdentifier":null,"stateCode":"AZ","city":"Hereford"},{"identifier":"03B","name":"Mansfield Muni","latitude":37.12677777,"longitude":-92.62161111,"elevationFeet":1520,"isPublic":true,"faaIdentifier":"03B","icaoIdentifier":null,"stateCode":"MO","city":"Mansfield"},{"identifier":"03CA","name":"Grossmont Hospital","latitude":32.77945277,"longitude":-117.00694166,"elevationFeet":634,"isPublic":false,"faaIdentifier":"03CA","icaoIdentifier":null,"stateCode":"CA","city":"La Mesa"},{"identifier":"03CO","name":"Blue Water","latitude":38.09791816,"longitude":-106.08975536,"elevationFeet":7710,"isPublic":false,"faaIdentifier":"03CO","icaoIdentifier":null,"stateCode":"CO","city":"Saguache"},{"identifier":"03D","name":"Memphis Meml","latitude":40.44725,"longitude":-92.22694444,"elevationFeet":813,"isPublic":true,"faaIdentifier":"03D","icaoIdentifier":null,"stateCode":"MO","city":"Memphis"},{"identifier":"03FA","name":"Lake Persimmon Airstrip","latitude":27.3530975,"longitude":-81.40812861,"elevationFeet":70,"isPublic":false,"faaIdentifier":"03FA","icaoIdentifier":null,"stateCode":"FL","city":"Lake Placid"},{"identifier":"03FL","name":"Greens Farm Fld","latitude":26.7054775,"longitude":-82.05236916,"elevationFeet":15,"isPublic":false,"faaIdentifier":"03FL","icaoIdentifier":null,"stateCode":"FL","city":"Cape Coral"},{"identifier":"03G","name":"Thermal-G","latitude":42.02061388,"longitude":-80.07071944,"elevationFeet":1434,"isPublic":true,"faaIdentifier":"03G","icaoIdentifier":null,"stateCode":"PA","city":"Erie"},{"identifier":"03GA","name":"Hia","latitude":32.56230555,"longitude":-81.85769444,"elevationFeet":238,"isPublic":false,"faaIdentifier":"03GA","icaoIdentifier":null,"stateCode":"GA","city":"Statesboro"},{"identifier":"03GE","name":"Ngmc Lumpkin Hospital","latitude":34.45961666,"longitude":-83.97121944,"elevationFeet":1178,"isPublic":false,"faaIdentifier":"03GE","icaoIdentifier":null,"stateCode":"GA","city":"Dahlonega"},{"identifier":"03IA","name":"Flatlander","latitude":41.14141111,"longitude":-95.19438055,"elevationFeet":1081,"isPublic":false,"faaIdentifier":"03IA","icaoIdentifier":null,"stateCode":"IA","city":"Elliott"},{"identifier":"03ID","name":"Flying Y Ranch","latitude":44.79432944,"longitude":-116.53264638,"elevationFeet":3180,"isPublic":false,"faaIdentifier":"03ID","icaoIdentifier":null,"stateCode":"ID","city":"Council"},{"identifier":"03II","name":"Davis Fld","latitude":37.96198694,"longitude":-87.77891166,"elevationFeet":465,"isPublic":false,"faaIdentifier":"03II","icaoIdentifier":null,"stateCode":"IN","city":"Mount Vernon"},{"identifier":"03IL","name":"Wix","latitude":41.40225527,"longitude":-87.81671333,"elevationFeet":750,"isPublic":false,"faaIdentifier":"03IL","icaoIdentifier":null,"stateCode":"IL","city":"Monee"},{"identifier":"03IS","name":"Osf St Anthony'S Health Center","latitude":38.90766666,"longitude":-90.17445555,"elevationFeet":580,"isPublic":false,"faaIdentifier":"03IS","icaoIdentifier":null,"stateCode":"IL","city":"Alton"},{"identifier":"03KY","name":"Flying H Farms","latitude":37.795904,"longitude":-87.53879,"elevationFeet":385,"isPublic":false,"faaIdentifier":"03KY","icaoIdentifier":null,"stateCode":"KY","city":"Henderson"},{"identifier":"03LA","name":"Damien","latitude":30.19964083,"longitude":-91.12788166,"elevationFeet":25,"isPublic":false,"faaIdentifier":"03LA","icaoIdentifier":null,"stateCode":"LA","city":"Carville"},{"identifier":"03LS","name":"Fmc Nr 1","latitude":32.15903888,"longitude":-91.70804166,"elevationFeet":79,"isPublic":false,"faaIdentifier":"03LS","icaoIdentifier":null,"stateCode":"LA","city":"Winnsboro"},{"identifier":"03M","name":"Lakeside Lodge And Marina","latitude":44.31522222,"longitude":-69.88705555,"elevationFeet":165,"isPublic":true,"faaIdentifier":"03M","icaoIdentifier":null,"stateCode":"ME","city":"East Winthrop"},{"identifier":"03MA","name":"Hadley","latitude":42.39314472,"longitude":-72.55203222,"elevationFeet":150,"isPublic":false,"faaIdentifier":"03MA","icaoIdentifier":null,"stateCode":"MA","city":"Hadley"},{"identifier":"03MD","name":"Upper Chesapeake Medical Center","latitude":39.51844722,"longitude":-76.34597222,"elevationFeet":302,"isPublic":false,"faaIdentifier":"03MD","icaoIdentifier":null,"stateCode":"MD","city":"Bel Air"},{"identifier":"03ME","name":"Maple Ridge","latitude":44.08423722,"longitude":-70.62728277,"elevationFeet":556,"isPublic":false,"faaIdentifier":"03ME","icaoIdentifier":null,"stateCode":"ME","city":"Harrison"},{"identifier":"03MI","name":"Harold Miller","latitude":43.55885833,"longitude":-83.86225555,"elevationFeet":585,"isPublic":false,"faaIdentifier":"03MI","icaoIdentifier":null,"stateCode":"MI","city":"Bay City"},{"identifier":"03MN","name":"Nauerth Land Ranch","latitude":43.62523833,"longitude":-95.22472222,"elevationFeet":1435,"isPublic":false,"faaIdentifier":"03MN","icaoIdentifier":null,"stateCode":"MN","city":"Lakefield"},{"identifier":"03MO","name":"Dorton","latitude":39.28883055,"longitude":-93.99242222,"elevationFeet":930,"isPublic":false,"faaIdentifier":"03MO","icaoIdentifier":null,"stateCode":"MO","city":"Richmond"},{"identifier":"03MT","name":"Billings Flying Service","latitude":45.80905719,"longitude":-108.56998305,"elevationFeet":3671,"isPublic":false,"faaIdentifier":"03MT","icaoIdentifier":null,"stateCode":"MT","city":"Billings"},{"identifier":"03MU","name":"Mc Donnell","latitude":38.49194444,"longitude":-94.41235555,"elevationFeet":874,"isPublic":false,"faaIdentifier":"03MU","icaoIdentifier":null,"stateCode":"MO","city":"Archie"},{"identifier":"03N","name":"Utirik","latitude":11.23333333,"longitude":169.85,"elevationFeet":4,"isPublic":true,"faaIdentifier":"03N","icaoIdentifier":null,"stateCode":"","city":"Utirik Island"},{"identifier":"03NC","name":"Pilots Ridge","latitude":34.10433833,"longitude":-77.90416666,"elevationFeet":35,"isPublic":false,"faaIdentifier":"03NC","icaoIdentifier":null,"stateCode":"NC","city":"Carolina Beach"},{"identifier":"03ND","name":"Olafson Brothers","latitude":48.62638277,"longitude":-97.82898333,"elevationFeet":1045,"isPublic":false,"faaIdentifier":"03ND","icaoIdentifier":null,"stateCode":"ND","city":"Edinburg"},{"identifier":"03NH","name":"Lorden","latitude":42.81611388,"longitude":-71.62416666,"elevationFeet":420,"isPublic":false,"faaIdentifier":"03NH","icaoIdentifier":null,"stateCode":"NH","city":"Milford"},{"identifier":"03NJ","name":"St Joseph'S Hospital","latitude":40.90350555,"longitude":-74.16547222,"elevationFeet":206,"isPublic":false,"faaIdentifier":"03NJ","icaoIdentifier":null,"stateCode":"NJ","city":"Paterson"},{"identifier":"03NM","name":"Miner'S Colfax Medical Center","latitude":36.86238333,"longitude":-104.44288333,"elevationFeet":6600,"isPublic":false,"faaIdentifier":"03NM","icaoIdentifier":null,"stateCode":"NM","city":"Raton"},{"identifier":"03NR","name":"Johnston Medical Center","latitude":35.63027,"longitude":-78.50392,"elevationFeet":320,"isPublic":false,"faaIdentifier":"03NR","icaoIdentifier":null,"stateCode":"NC","city":"Clayton"},{"identifier":"03NV","name":"Llama Ranch","latitude":40.58444444,"longitude":-115.29777777,"elevationFeet":6120,"isPublic":false,"faaIdentifier":"03NV","icaoIdentifier":null,"stateCode":"NV","city":"Ruby Valley"},{"identifier":"03NY","name":"Talmage Fld","latitude":40.95843166,"longitude":-72.716765,"elevationFeet":95,"isPublic":false,"faaIdentifier":"03NY","icaoIdentifier":null,"stateCode":"NY","city":"Riverhead"},{"identifier":"03OH","name":"Gibbs Fld","latitude":41.41838527,"longitude":-83.01741611,"elevationFeet":580,"isPublic":false,"faaIdentifier":"03OH","icaoIdentifier":null,"stateCode":"OH","city":"Fremont"},{"identifier":"03OI","name":"Cleveland Clinic, Marymount Hospital","latitude":41.42030833,"longitude":-81.59954444,"elevationFeet":890,"isPublic":false,"faaIdentifier":"03OI","icaoIdentifier":null,"stateCode":"OH","city":"Garfield Heights"},{"identifier":"03OK","name":"Sahoma Lake","latitude":36.04119722,"longitude":-96.16138888,"elevationFeet":890,"isPublic":false,"faaIdentifier":"03OK","icaoIdentifier":null,"stateCode":"OK","city":"Sapulpa"},{"identifier":"03OL","name":"Bluebird","latitude":35.01233388,"longitude":-97.702735,"elevationFeet":1232,"isPublic":false,"faaIdentifier":"03OL","icaoIdentifier":null,"stateCode":"OK","city":"Alex"},{"identifier":"03OR","name":"Powwatka Ridge","latitude":45.85542194,"longitude":-117.48434416,"elevationFeet":3340,"isPublic":false,"faaIdentifier":"03OR","icaoIdentifier":null,"stateCode":"OR","city":"Troy"},{"identifier":"03PN","name":"M P Metals","latitude":41.06686111,"longitude":-76.18080555,"elevationFeet":495,"isPublic":false,"faaIdentifier":"03PN","icaoIdentifier":null,"stateCode":"PA","city":"Berwick"},{"identifier":"03PR","name":"Sun View Fld","latitude":39.06594722,"longitude":-94.92170277,"elevationFeet":980,"isPublic":false,"faaIdentifier":"03PR","icaoIdentifier":null,"stateCode":"KS","city":"Bonner Springs"},{"identifier":"03S","name":"Sandy River","latitude":45.40161111,"longitude":-122.22869444,"elevationFeet":704,"isPublic":true,"faaIdentifier":"03S","icaoIdentifier":null,"stateCode":"OR","city":"Sandy"},{"identifier":"03SC","name":"Seacoast Medical Center","latitude":33.86655277,"longitude":-78.66423055,"elevationFeet":73,"isPublic":false,"faaIdentifier":"03SC","icaoIdentifier":null,"stateCode":"SC","city":"Little River"},{"identifier":"03TA","name":"Midland Meml Hospital","latitude":31.99675,"longitude":-102.10094444,"elevationFeet":2814,"isPublic":false,"faaIdentifier":"03TA","icaoIdentifier":null,"stateCode":"TX","city":"Midland"},{"identifier":"03TE","name":"Barronena Ranch","latitude":27.49114444,"longitude":-98.66946138,"elevationFeet":600,"isPublic":false,"faaIdentifier":"03TE","icaoIdentifier":null,"stateCode":"TX","city":"Hebbronville"},{"identifier":"03TN","name":"Eagles Landing","latitude":35.922975,"longitude":-83.57933333,"elevationFeet":1000,"isPublic":false,"faaIdentifier":"03TN","icaoIdentifier":null,"stateCode":"TN","city":"Sevierville"},{"identifier":"03TS","name":"Shannon Medical Center","latitude":31.46580277,"longitude":-100.43396666,"elevationFeet":1825,"isPublic":false,"faaIdentifier":"03TS","icaoIdentifier":null,"stateCode":"TX","city":"San Angelo"},{"identifier":"03TT","name":"Brazos Polo","latitude":29.63211666,"longitude":-95.93248055,"elevationFeet":117,"isPublic":false,"faaIdentifier":"03TT","icaoIdentifier":null,"stateCode":"TX","city":"Orchard"},{"identifier":"03TX","name":"M D K Fld","latitude":29.58089722,"longitude":-95.30635555,"elevationFeet":47,"isPublic":false,"faaIdentifier":"03TX","icaoIdentifier":null,"stateCode":"TX","city":"Pearland"},{"identifier":"03UT","name":"A Z Minerals Corporation","latitude":37.12083444,"longitude":-109.98595722,"elevationFeet":5315,"isPublic":false,"faaIdentifier":"03UT","icaoIdentifier":null,"stateCode":"UT","city":"Mexican Hat"},{"identifier":"03VA","name":"Spotsylvania Rgnl Medical Center","latitude":38.21661666,"longitude":-77.49555,"elevationFeet":237,"isPublic":false,"faaIdentifier":"03VA","icaoIdentifier":null,"stateCode":"VA","city":"Fredericksburg"},{"identifier":"03WA","name":"Spangle Fld","latitude":47.40822694,"longitude":-117.37186361,"elevationFeet":2440,"isPublic":false,"faaIdentifier":"03WA","icaoIdentifier":null,"stateCode":"WA","city":"Spangle"},{"identifier":"03WI","name":"Aurora Medical Center Grafton","latitude":43.32478888,"longitude":-87.92828333,"elevationFeet":714,"isPublic":false,"faaIdentifier":"03WI","icaoIdentifier":null,"stateCode":"WI","city":"Grafton"},{"identifier":"03WN","name":"Aerostone Airfield","latitude":45.87545447,"longitude":-120.67232602,"elevationFeet":2342,"isPublic":false,"faaIdentifier":"03WN","icaoIdentifier":null,"stateCode":"WA","city":"Goldendale"},{"identifier":"03WT","name":"Lopez Medical Clinic","latitude":48.52493333,"longitude":-122.91238888,"elevationFeet":38,"isPublic":false,"faaIdentifier":"03WT","icaoIdentifier":null,"stateCode":"WA","city":"Lopez Island"},{"identifier":"03XA","name":"Del Sol Medical Center","latitude":31.75741666,"longitude":-106.34697222,"elevationFeet":3881,"isPublic":false,"faaIdentifier":"03XA","icaoIdentifier":null,"stateCode":"TX","city":"El Paso"},{"identifier":"03XS","name":"Creekside","latitude":31.31805555,"longitude":-100.75416666,"elevationFeet":2100,"isPublic":false,"faaIdentifier":"03XS","icaoIdentifier":null,"stateCode":"TX","city":"Mertzon"},{"identifier":"04A","name":"Frank Sikes","latitude":31.73638694,"longitude":-86.26245463,"elevationFeet":302,"isPublic":true,"faaIdentifier":"04A","icaoIdentifier":null,"stateCode":"AL","city":"Luverne"},{"identifier":"04AA","name":"Flying W Ranch","latitude":60.53583333,"longitude":-150.81138888,"elevationFeet":250,"isPublic":false,"faaIdentifier":"04AA","icaoIdentifier":null,"stateCode":"AK","city":"Soldotna"},{"identifier":"04AL","name":"Anniston Army Depot Helipad","latitude":33.62638888,"longitude":-85.96722222,"elevationFeet":686,"isPublic":false,"faaIdentifier":"04AL","icaoIdentifier":null,"stateCode":"AL","city":"Anniston"},{"identifier":"04AN","name":"North 40","latitude":61.73751111,"longitude":-148.70072361,"elevationFeet":943,"isPublic":false,"faaIdentifier":"04AN","icaoIdentifier":null,"stateCode":"AK","city":"Sutton"},{"identifier":"04AR","name":"Saline Meml Hospital","latitude":34.57424444,"longitude":-92.58603055,"elevationFeet":430,"isPublic":false,"faaIdentifier":"04AR","icaoIdentifier":null,"stateCode":"AR","city":"Benton"},{"identifier":"04AZ","name":"White Hills","latitude":35.72177638,"longitude":-114.45053888,"elevationFeet":2470,"isPublic":false,"faaIdentifier":"04AZ","icaoIdentifier":null,"stateCode":"AZ","city":"White Hills"},{"identifier":"04CA","name":"Gray Butte Fld","latitude":34.56664452,"longitude":-117.67077219,"elevationFeet":3039,"isPublic":false,"faaIdentifier":"04CA","icaoIdentifier":null,"stateCode":"CA","city":"Palmdale"},{"identifier":"04CL","name":"Desert Wings Sky Ranch","latitude":33.08171083,"longitude":-116.44140444,"elevationFeet":2310,"isPublic":false,"faaIdentifier":"04CL","icaoIdentifier":null,"stateCode":"CA","city":"Julian"},{"identifier":"04FA","name":"Richards Fld","latitude":25.55871916,"longitude":-80.51505722,"elevationFeet":9,"isPublic":false,"faaIdentifier":"04FA","icaoIdentifier":null,"stateCode":"FL","city":"Homestead"},{"identifier":"04FD","name":"Tampa General Hospital Brandon Healthplex","latitude":27.92937222,"longitude":-82.33698333,"elevationFeet":37,"isPublic":false,"faaIdentifier":"04FD","icaoIdentifier":null,"stateCode":"FL","city":"Brandon"},{"identifier":"04FL","name":"Cross Creek Farms","latitude":29.23942472,"longitude":-81.222005,"elevationFeet":30,"isPublic":false,"faaIdentifier":"04FL","icaoIdentifier":null,"stateCode":"FL","city":"Ormond"},{"identifier":"04G","name":"Lansdowne","latitude":41.13047222,"longitude":-80.61958333,"elevationFeet":1043,"isPublic":true,"faaIdentifier":"04G","icaoIdentifier":null,"stateCode":"OH","city":"Youngstown"},{"identifier":"04GA","name":"Verge Towers","latitude":33.83236111,"longitude":-83.56232777,"elevationFeet":753,"isPublic":false,"faaIdentifier":"04GA","icaoIdentifier":null,"stateCode":"GA","city":"Monroe"},{"identifier":"04IA","name":"Middlekoop","latitude":41.08835027,"longitude":-92.05462027,"elevationFeet":801,"isPublic":false,"faaIdentifier":"04IA","icaoIdentifier":null,"stateCode":"IA","city":"Packwood"},{"identifier":"04ID","name":"Lanham Fld","latitude":43.87766416,"longitude":-116.53708055,"elevationFeet":2343,"isPublic":false,"faaIdentifier":"04ID","icaoIdentifier":null,"stateCode":"ID","city":"Emmett"},{"identifier":"04IL","name":"Full Throttle","latitude":40.63753527,"longitude":-89.00701888,"elevationFeet":755,"isPublic":false,"faaIdentifier":"04IL","icaoIdentifier":null,"stateCode":"IL","city":"Hudson"},{"identifier":"04IN","name":"Lake Gage","latitude":41.70138888,"longitude":-85.11305555,"elevationFeet":954,"isPublic":false,"faaIdentifier":"04IN","icaoIdentifier":null,"stateCode":"IN","city":"Angola"},{"identifier":"04IS","name":"Van Gorder","latitude":40.17864472,"longitude":-88.5689525,"elevationFeet":728,"isPublic":false,"faaIdentifier":"04IS","icaoIdentifier":null,"stateCode":"IL","city":"Mansfield"},{"identifier":"04KS","name":"Kraemer Airfield","latitude":37.39854705,"longitude":-100.03709419,"elevationFeet":2551,"isPublic":false,"faaIdentifier":"04KS","icaoIdentifier":null,"stateCode":"KS","city":"Minneola"},{"identifier":"04KY","name":"Natchez Trace Farm","latitude":37.13505361,"longitude":-85.78941555,"elevationFeet":710,"isPublic":false,"faaIdentifier":"04KY","icaoIdentifier":null,"stateCode":"KY","city":"Hiseville"},{"identifier":"04LA","name":"St James","latitude":30.05101944,"longitude":-90.70384722,"elevationFeet":10,"isPublic":false,"faaIdentifier":"04LA","icaoIdentifier":null,"stateCode":"LA","city":"Lutcher"},{"identifier":"04LS","name":"Lsp Gohsep","latitude":30.44603333,"longitude":-91.10515,"elevationFeet":48,"isPublic":false,"faaIdentifier":"04LS","icaoIdentifier":null,"stateCode":"LA","city":"Baton Rouge"},{"identifier":"04M","name":"Calhoun County","latitude":33.93008333,"longitude":-89.34327777,"elevationFeet":387,"isPublic":true,"faaIdentifier":"04M","icaoIdentifier":null,"stateCode":"MS","city":"Pittsboro"},{"identifier":"04MA","name":"Goddard","latitude":42.80981138,"longitude":-71.13922527,"elevationFeet":200,"isPublic":false,"faaIdentifier":"04MA","icaoIdentifier":null,"stateCode":"MA","city":"Haverhill"},{"identifier":"04MD","name":"Chesapeake City","latitude":39.51817222,"longitude":-75.82107777,"elevationFeet":40,"isPublic":false,"faaIdentifier":"04MD","icaoIdentifier":null,"stateCode":"MD","city":"Chesapeake City"},{"identifier":"04ME","name":"Beech Hill","latitude":44.66672861,"longitude":-69.89394416,"elevationFeet":625,"isPublic":false,"faaIdentifier":"04ME","icaoIdentifier":null,"stateCode":"ME","city":"Mercer"},{"identifier":"04MI","name":"Rapids Airway","latitude":42.53448111,"longitude":-84.62831305,"elevationFeet":880,"isPublic":false,"faaIdentifier":"04MI","icaoIdentifier":null,"stateCode":"MI","city":"Eaton Rapids"},{"identifier":"04MN","name":"Helblad","latitude":47.98579222,"longitude":-94.68691777,"elevationFeet":1195,"isPublic":false,"faaIdentifier":"04MN","icaoIdentifier":null,"stateCode":"MN","city":"Kelliher"},{"identifier":"04MO","name":"Kc Stadium","latitude":39.043,"longitude":-94.486,"elevationFeet":777,"isPublic":false,"faaIdentifier":"04MO","icaoIdentifier":null,"stateCode":"MO","city":"Kansas City"},{"identifier":"04MS","name":"Nicks Flying Service Inc","latitude":32.93957166,"longitude":-90.83732194,"elevationFeet":100,"isPublic":false,"faaIdentifier":"04MS","icaoIdentifier":null,"stateCode":"MS","city":"Rolling Fork"},{"identifier":"04MT","name":"Pluhar","latitude":47.13749777,"longitude":-106.488095,"elevationFeet":2715,"isPublic":false,"faaIdentifier":"04MT","icaoIdentifier":null,"stateCode":"MT","city":"Cohagen"},{"identifier":"04NC","name":"Wakemed Cary Hospital","latitude":35.73926388,"longitude":-78.78278333,"elevationFeet":445,"isPublic":false,"faaIdentifier":"04NC","icaoIdentifier":null,"stateCode":"NC","city":"Cary"},{"identifier":"04NE","name":"Mc Connell Fld","latitude":41.15999333,"longitude":-101.2990525,"elevationFeet":3035,"isPublic":false,"faaIdentifier":"04NE","icaoIdentifier":null,"stateCode":"NE","city":"Sarben"},{"identifier":"04NJ","name":"Emmanuel","latitude":39.59678111,"longitude":-75.23351888,"elevationFeet":155,"isPublic":false,"faaIdentifier":"04NJ","icaoIdentifier":null,"stateCode":"NJ","city":"Elmer"},{"identifier":"04NR","name":"Mcgee 04","latitude":34.77568055,"longitude":-77.39221944,"elevationFeet":40,"isPublic":false,"faaIdentifier":"04NR","icaoIdentifier":null,"stateCode":"NC","city":"Jacksonville"},{"identifier":"04NV","name":"Kingston Ranch","latitude":35.75553138,"longitude":-115.66472805,"elevationFeet":2620,"isPublic":false,"faaIdentifier":"04NV","icaoIdentifier":null,"stateCode":"NV","city":"Sandy Valley"},{"identifier":"04NY","name":"Klaverack","latitude":42.26230916,"longitude":-73.69623305,"elevationFeet":250,"isPublic":false,"faaIdentifier":"04NY","icaoIdentifier":null,"stateCode":"NY","city":"Hudson"},{"identifier":"04OG","name":"Teufel","latitude":45.53103055,"longitude":-123.08599444,"elevationFeet":185,"isPublic":false,"faaIdentifier":"04OG","icaoIdentifier":null,"stateCode":"OR","city":"Forest Grove"},{"identifier":"04OH","name":"Cleveland Clinic, Brunswick Family Health Center","latitude":41.23775833,"longitude":-81.81549722,"elevationFeet":1110,"isPublic":false,"faaIdentifier":"04OH","icaoIdentifier":null,"stateCode":"OH","city":"Brunswick"},{"identifier":"04OK","name":"Stillwater Medical Center","latitude":36.11493333,"longitude":-97.07592222,"elevationFeet":984,"isPublic":false,"faaIdentifier":"04OK","icaoIdentifier":null,"stateCode":"OK","city":"Stillwater"},{"identifier":"04OR","name":"Collins Landing Strip","latitude":44.74985527,"longitude":-120.20112888,"elevationFeet":1500,"isPublic":false,"faaIdentifier":"04OR","icaoIdentifier":null,"stateCode":"OR","city":"Mitchell"},{"identifier":"04SC","name":"Emergency Helipad","latitude":34.84218888,"longitude":-82.60712222,"elevationFeet":994,"isPublic":false,"faaIdentifier":"04SC","icaoIdentifier":null,"stateCode":"SC","city":"Easley"},{"identifier":"04SD","name":"Cheyenne River Health Center","latitude":44.993125,"longitude":-101.24301111,"elevationFeet":2437,"isPublic":false,"faaIdentifier":"04SD","icaoIdentifier":null,"stateCode":"SD","city":"Eagle Butte"},{"identifier":"04TA","name":"Capitol Ntl Bank Building","latitude":30.27104166,"longitude":-97.7447275,"elevationFeet":540,"isPublic":false,"faaIdentifier":"04TA","icaoIdentifier":null,"stateCode":"TX","city":"Austin"},{"identifier":"04TE","name":"Veterans Affairs Medical Center","latitude":29.69971388,"longitude":-95.39067777,"elevationFeet":49,"isPublic":false,"faaIdentifier":"04TE","icaoIdentifier":null,"stateCode":"TX","city":"Houston"},{"identifier":"04TN","name":"Hensley Airpark","latitude":36.18333333,"longitude":-82.67888888,"elevationFeet":1430,"isPublic":false,"faaIdentifier":"04TN","icaoIdentifier":null,"stateCode":"TN","city":"Chuckey"},{"identifier":"04TT","name":"Brushy Creek Ranch","latitude":29.71369569,"longitude":-99.54562294,"elevationFeet":1550,"isPublic":false,"faaIdentifier":"04TT","icaoIdentifier":null,"stateCode":"TX","city":"Utopia"},{"identifier":"04TX","name":"Pocock","latitude":31.73222222,"longitude":-97.36888888,"elevationFeet":565,"isPublic":false,"faaIdentifier":"04TX","icaoIdentifier":null,"stateCode":"TX","city":"China Spring"},{"identifier":"04UT","name":"Navajo Mountain","latitude":37.00832972,"longitude":-110.79513666,"elevationFeet":6160,"isPublic":false,"faaIdentifier":"04UT","icaoIdentifier":null,"stateCode":"UT","city":"Navajo Mountain Trdng Post"},{"identifier":"04V","name":"Saguache Muni","latitude":38.09939444,"longitude":-106.17432777,"elevationFeet":7850,"isPublic":true,"faaIdentifier":"04V","icaoIdentifier":null,"stateCode":"CO","city":"Saguache"},{"identifier":"04VA","name":"Russell County Medical Center","latitude":36.89825555,"longitude":-82.07848333,"elevationFeet":2004,"isPublic":false,"faaIdentifier":"04VA","icaoIdentifier":null,"stateCode":"VA","city":"Lebanon"},{"identifier":"04VG","name":"Manquin Flight Park","latitude":37.71443333,"longitude":-77.21181666,"elevationFeet":50,"isPublic":false,"faaIdentifier":"04VG","icaoIdentifier":null,"stateCode":"VA","city":"Manquin"},{"identifier":"04VT","name":"Lightning Bolt Fld","latitude":44.40111111,"longitude":-72.26361111,"elevationFeet":2156,"isPublic":false,"faaIdentifier":"04VT","icaoIdentifier":null,"stateCode":"VT","city":"Cabot"},{"identifier":"04W","name":"Field Of Dreams","latitude":46.02286811,"longitude":-92.89517441,"elevationFeet":1021,"isPublic":true,"faaIdentifier":"04W","icaoIdentifier":null,"stateCode":"MN","city":"Hinckley"},{"identifier":"04WA","name":"Ox Meadows","latitude":47.58183611,"longitude":-117.4371525,"elevationFeet":2345,"isPublic":false,"faaIdentifier":"04WA","icaoIdentifier":null,"stateCode":"WA","city":"Spokane"},{"identifier":"04WI","name":"Dutch Gap Airstrip","latitude":42.5233525,"longitude":-88.01674805,"elevationFeet":760,"isPublic":false,"faaIdentifier":"04WI","icaoIdentifier":null,"stateCode":"WI","city":"Bristol"},{"identifier":"04WN","name":"Stillwater Creek","latitude":46.95835833,"longitude":-119.63881944,"elevationFeet":1510,"isPublic":false,"faaIdentifier":"04WN","icaoIdentifier":null,"stateCode":"WA","city":"Royal City"},{"identifier":"04XA","name":"Pecan Fld","latitude":33.28393333,"longitude":-98.40286111,"elevationFeet":1130,"isPublic":false,"faaIdentifier":"04XA","icaoIdentifier":null,"stateCode":"TX","city":"Jermyn"},{"identifier":"04Y","name":"Hawley Muni","latitude":46.88377777,"longitude":-96.35061111,"elevationFeet":1209,"isPublic":true,"faaIdentifier":"04Y","icaoIdentifier":null,"stateCode":"MN","city":"Hawley"},{"identifier":"05AA","name":"Chatham","latitude":57.51493833,"longitude":-134.946215,"elevationFeet":0,"isPublic":false,"faaIdentifier":"05AA","icaoIdentifier":null,"stateCode":"AK","city":"Chatham"},{"identifier":"05AK","name":"Wasilla Creek Airpark","latitude":61.66865416,"longitude":-149.18733333,"elevationFeet":645,"isPublic":false,"faaIdentifier":"05AK","icaoIdentifier":null,"stateCode":"AK","city":"Palmer"},{"identifier":"05AL","name":"Allen Stagefield Ahp","latitude":31.231175,"longitude":-85.64970277,"elevationFeet":365,"isPublic":false,"faaIdentifier":"05AL","icaoIdentifier":null,"stateCode":"AL","city":"Fort Novosel (Wicksburg)"},{"identifier":"05AN","name":"Weltons Aerodrome","latitude":64.96047202,"longitude":-147.60109194,"elevationFeet":795,"isPublic":false,"faaIdentifier":"05AN","icaoIdentifier":null,"stateCode":"AK","city":"Fox"},{"identifier":"05AR","name":"Ozark Skies Airpark","latitude":36.00063333,"longitude":-93.57025,"elevationFeet":1900,"isPublic":false,"faaIdentifier":"05AR","icaoIdentifier":null,"stateCode":"AR","city":"Kingston"},{"identifier":"05AZ","name":"Yuma Rgnl Medical Center","latitude":32.68362222,"longitude":-114.63505833,"elevationFeet":200,"isPublic":false,"faaIdentifier":"05AZ","icaoIdentifier":null,"stateCode":"AZ","city":"Yuma"},{"identifier":"05B","name":"Van Buren","latitude":47.15893194,"longitude":-67.93196833,"elevationFeet":440,"isPublic":true,"faaIdentifier":"05B","icaoIdentifier":null,"stateCode":"ME","city":"Van Buren"},{"identifier":"05C","name":"Griffith-Merrillville","latitude":41.519841,"longitude":-87.39950797,"elevationFeet":634,"isPublic":true,"faaIdentifier":"05C","icaoIdentifier":null,"stateCode":"IN","city":"Griffith"},{"identifier":"05CA","name":"Lost Hills Sheriff'S Station","latitude":34.13652777,"longitude":-118.71468055,"elevationFeet":888,"isPublic":false,"faaIdentifier":"05CA","icaoIdentifier":null,"stateCode":"CA","city":"Calabasas"},{"identifier":"05CL","name":"Pope Valley","latitude":38.61073916,"longitude":-122.3913675,"elevationFeet":618,"isPublic":false,"faaIdentifier":"05CL","icaoIdentifier":null,"stateCode":"CA","city":"Pope Valley"},{"identifier":"05CO","name":"Rancho De Aereo","latitude":40.21498388,"longitude":-104.98442277,"elevationFeet":4978,"isPublic":false,"faaIdentifier":"05CO","icaoIdentifier":null,"stateCode":"CO","city":"Mead"},{"identifier":"05D","name":"New Town Muni","latitude":47.96812777,"longitude":-102.47856138,"elevationFeet":1924,"isPublic":true,"faaIdentifier":"05D","icaoIdentifier":null,"stateCode":"ND","city":"New Town"},{"identifier":"05FA","name":"Melanie'S","latitude":30.91888888,"longitude":-86.21833333,"elevationFeet":295,"isPublic":false,"faaIdentifier":"05FA","icaoIdentifier":null,"stateCode":"FL","city":"Florala"},{"identifier":"05FD","name":"Aventura","latitude":25.95737222,"longitude":-80.13860555,"elevationFeet":6,"isPublic":false,"faaIdentifier":"05FD","icaoIdentifier":null,"stateCode":"FL","city":"North Miami Beach"},{"identifier":"05FL","name":"Charlton Strip","latitude":26.52022222,"longitude":-81.41022222,"elevationFeet":36,"isPublic":false,"faaIdentifier":"05FL","icaoIdentifier":null,"stateCode":"FL","city":"La Belle"},{"identifier":"05GA","name":"Ark","latitude":32.07138888,"longitude":-84.71444444,"elevationFeet":625,"isPublic":false,"faaIdentifier":"05GA","icaoIdentifier":null,"stateCode":"GA","city":"Richland"},{"identifier":"05IA","name":"Spotts Fld","latitude":43.13787083,"longitude":-93.06834166,"elevationFeet":1155,"isPublic":false,"faaIdentifier":"05IA","icaoIdentifier":null,"stateCode":"IA","city":"Nora Springs"},{"identifier":"05ID","name":"Running Creek Ranch","latitude":45.91408361,"longitude":-114.83566055,"elevationFeet":2969,"isPublic":false,"faaIdentifier":"05ID","icaoIdentifier":null,"stateCode":"ID","city":"Grangeville"},{"identifier":"05IL","name":"Classic Landings","latitude":41.16,"longitude":-88.01666666,"elevationFeet":635,"isPublic":false,"faaIdentifier":"05IL","icaoIdentifier":null,"stateCode":"IL","city":"Bonfield"},{"identifier":"05IN","name":"Cooper","latitude":39.64199083,"longitude":-86.50416416,"elevationFeet":860,"isPublic":false,"faaIdentifier":"05IN","icaoIdentifier":null,"stateCode":"IN","city":"Belleville"},{"identifier":"05K","name":"Wilder Runway","latitude":60.19848083,"longitude":-154.32304916,"elevationFeet":288,"isPublic":true,"faaIdentifier":"05K","icaoIdentifier":"PAKX","stateCode":"AK","city":"Port Alsworth"},{"identifier":"05KS","name":"Darbro Fld","latitude":37.26633888,"longitude":-95.958975,"elevationFeet":925,"isPublic":false,"faaIdentifier":"05KS","icaoIdentifier":null,"stateCode":"KS","city":"Elk City"},{"identifier":"05KT","name":"High Point Farm","latitude":38.18820277,"longitude":-84.92750277,"elevationFeet":880,"isPublic":false,"faaIdentifier":"05KT","icaoIdentifier":null,"stateCode":"KY","city":"Frankfort"},{"identifier":"05KY","name":"Cartersville","latitude":37.53555555,"longitude":-84.40722222,"elevationFeet":1070,"isPublic":false,"faaIdentifier":"05KY","icaoIdentifier":null,"stateCode":"KY","city":"Berea"},{"identifier":"05LA","name":"Greg'S Flying Service","latitude":32.26542083,"longitude":-91.69792083,"elevationFeet":77,"isPublic":false,"faaIdentifier":"05LA","icaoIdentifier":null,"stateCode":"LA","city":"Baskin"},{"identifier":"05LL","name":"Midwest Meml","latitude":41.74922222,"longitude":-87.93590277,"elevationFeet":710,"isPublic":false,"faaIdentifier":"05LL","icaoIdentifier":null,"stateCode":"IL","city":"Willowbrook"},{"identifier":"05LS","name":"Grass Roots","latitude":31.25222222,"longitude":-92.47583333,"elevationFeet":83,"isPublic":false,"faaIdentifier":"05LS","icaoIdentifier":null,"stateCode":"LA","city":"Alexandria"},{"identifier":"05M","name":"Holy Cross Hospital-Mountain Point","latitude":40.4246,"longitude":-111.87766666,"elevationFeet":4348,"isPublic":false,"faaIdentifier":"05M","icaoIdentifier":null,"stateCode":"UT","city":"Lehi"},{"identifier":"05MA","name":"Bentley","latitude":42.69308055,"longitude":-70.91229722,"elevationFeet":71,"isPublic":false,"faaIdentifier":"05MA","icaoIdentifier":null,"stateCode":"MA","city":"Ipswich"},{"identifier":"05MD","name":"Breezecroft","latitude":39.2442188,"longitude":-76.19867144,"elevationFeet":20,"isPublic":false,"faaIdentifier":"05MD","icaoIdentifier":null,"stateCode":"MD","city":"Chestertown"},{"identifier":"05ME","name":"Drisko Kelley","latitude":44.65702166,"longitude":-67.55916,"elevationFeet":70,"isPublic":false,"faaIdentifier":"05ME","icaoIdentifier":null,"stateCode":"ME","city":"Jonesboro"},{"identifier":"05MI","name":"Corewell Health Taylor Hospital","latitude":42.23638888,"longitude":-83.27638888,"elevationFeet":621,"isPublic":false,"faaIdentifier":"05MI","icaoIdentifier":null,"stateCode":"MI","city":"Taylor"},{"identifier":"05MN","name":"Northern Pines Medical Center","latitude":47.5175,"longitude":-92.23027777,"elevationFeet":1446,"isPublic":false,"faaIdentifier":"05MN","icaoIdentifier":null,"stateCode":"MN","city":"Aurora"},{"identifier":"05MO","name":"Jetsetter Outdoors","latitude":40.17201944,"longitude":-92.21250833,"elevationFeet":776,"isPublic":false,"faaIdentifier":"05MO","icaoIdentifier":null,"stateCode":"MO","city":"Edina"},{"identifier":"05MT","name":"Jones Landing","latitude":45.81662777,"longitude":-111.15214166,"elevationFeet":4364,"isPublic":false,"faaIdentifier":"05MT","icaoIdentifier":null,"stateCode":"MT","city":"Belgrade"},{"identifier":"05N","name":"South Oaks Aerodrome","latitude":35.48218472,"longitude":-77.3557743,"elevationFeet":50,"isPublic":true,"faaIdentifier":"05N","icaoIdentifier":null,"stateCode":"NC","city":"Winterville"},{"identifier":"05NC","name":"Dead Cow Fld","latitude":34.75944444,"longitude":-76.64472222,"elevationFeet":11,"isPublic":false,"faaIdentifier":"05NC","icaoIdentifier":null,"stateCode":"NC","city":"Beaufort"},{"identifier":"05NE","name":"Mc Kay","latitude":41.72223305,"longitude":-98.30895833,"elevationFeet":2010,"isPublic":false,"faaIdentifier":"05NE","icaoIdentifier":null,"stateCode":"NE","city":"Spalding"},{"identifier":"05NJ","name":"Paulus Hook Pier","latitude":40.71339722,"longitude":-74.03202222,"elevationFeet":7,"isPublic":false,"faaIdentifier":"05NJ","icaoIdentifier":null,"stateCode":"NJ","city":"Jersey City"},{"identifier":"05NR","name":"Fox Fld","latitude":36.16841527,"longitude":-79.27690819,"elevationFeet":675,"isPublic":false,"faaIdentifier":"05NR","icaoIdentifier":null,"stateCode":"NC","city":"Mebane"},{"identifier":"05NV","name":"Baker Ranches","latitude":39.02583333,"longitude":-114.095,"elevationFeet":5180,"isPublic":false,"faaIdentifier":"05NV","icaoIdentifier":null,"stateCode":"NV","city":"Baker"},{"identifier":"05NY","name":"Oswego County At Pulaski","latitude":43.55201388,"longitude":-76.09020111,"elevationFeet":445,"isPublic":false,"faaIdentifier":"05NY","icaoIdentifier":null,"stateCode":"NY","city":"Pulaski"},{"identifier":"05OG","name":"Drill Fld Pad","latitude":44.05953888,"longitude":-123.11884722,"elevationFeet":415,"isPublic":false,"faaIdentifier":"05OG","icaoIdentifier":null,"stateCode":"OR","city":"Eugene"},{"identifier":"05OH","name":"Eaglecrest Fld","latitude":40.18466666,"longitude":-81.920625,"elevationFeet":968,"isPublic":false,"faaIdentifier":"05OH","icaoIdentifier":null,"stateCode":"OH","city":"Conesville"},{"identifier":"05OI","name":"Dorlon Airpark","latitude":41.28838527,"longitude":-81.96263944,"elevationFeet":830,"isPublic":false,"faaIdentifier":"05OI","icaoIdentifier":null,"stateCode":"OH","city":"Columbia Station"},{"identifier":"05OK","name":"Muncy","latitude":35.47136388,"longitude":-98.54170833,"elevationFeet":1680,"isPublic":false,"faaIdentifier":"05OK","icaoIdentifier":null,"stateCode":"OK","city":"Hydro"},{"identifier":"05OR","name":"6 Ranch","latitude":45.44425,"longitude":-117.34730555,"elevationFeet":3500,"isPublic":false,"faaIdentifier":"05OR","icaoIdentifier":null,"stateCode":"OR","city":"Enterprise"},{"identifier":"05PA","name":"Peco Mob","latitude":39.95483472,"longitude":-75.17823388,"elevationFeet":110,"isPublic":false,"faaIdentifier":"05PA","icaoIdentifier":null,"stateCode":"PA","city":"Philadelphia"},{"identifier":"05PN","name":"State Police Area Iii","latitude":40.30008861,"longitude":-76.85802833,"elevationFeet":485,"isPublic":false,"faaIdentifier":"05PN","icaoIdentifier":null,"stateCode":"PA","city":"Harrisburg"},{"identifier":"05PS","name":"Mills Brothers","latitude":40.14277777,"longitude":-77.86194444,"elevationFeet":1210,"isPublic":false,"faaIdentifier":"05PS","icaoIdentifier":null,"stateCode":"PA","city":"Burnt Cabins"},{"identifier":"05S","name":"Vernonia Muni","latitude":45.85210625,"longitude":-123.2428693,"elevationFeet":650,"isPublic":true,"faaIdentifier":"05S","icaoIdentifier":null,"stateCode":"OR","city":"Vernonia"},{"identifier":"05TA","name":"Brandes Air Fld","latitude":29.80908055,"longitude":-96.26396388,"elevationFeet":270,"isPublic":false,"faaIdentifier":"05TA","icaoIdentifier":null,"stateCode":"TX","city":"Sealy"},{"identifier":"05TE","name":"Hilde-Griff Fld","latitude":30.72213333,"longitude":-97.7914025,"elevationFeet":950,"isPublic":false,"faaIdentifier":"05TE","icaoIdentifier":null,"stateCode":"TX","city":"Georgetown"},{"identifier":"05TN","name":"Regional One Health","latitude":35.14229444,"longitude":-90.03153611,"elevationFeet":364,"isPublic":false,"faaIdentifier":"05TN","icaoIdentifier":null,"stateCode":"TN","city":"Memphis"},{"identifier":"05TS","name":"Dew Drop","latitude":33.1292875,"longitude":-97.35863055,"elevationFeet":750,"isPublic":false,"faaIdentifier":"05TS","icaoIdentifier":null,"stateCode":"TX","city":"Justin"},{"identifier":"05TX","name":"Circle 'A' Ranch","latitude":32.12916666,"longitude":-97.40416666,"elevationFeet":608,"isPublic":false,"faaIdentifier":"05TX","icaoIdentifier":null,"stateCode":"TX","city":"Blum"},{"identifier":"05U","name":"Eureka","latitude":39.60375,"longitude":-116.00361111,"elevationFeet":5957,"isPublic":true,"faaIdentifier":"05U","icaoIdentifier":null,"stateCode":"NV","city":"Eureka"},{"identifier":"05UT","name":"Sand Cove Ranch","latitude":37.28808405,"longitude":-113.69694422,"elevationFeet":4478,"isPublic":false,"faaIdentifier":"05UT","icaoIdentifier":null,"stateCode":"UT","city":"Veyo"},{"identifier":"05V","name":"Blanca","latitude":37.41111916,"longitude":-105.55168,"elevationFeet":7720,"isPublic":true,"faaIdentifier":"05V","icaoIdentifier":null,"stateCode":"CO","city":"Blanca"},{"identifier":"05VA","name":"Providence","latitude":37.22416666,"longitude":-78.41861111,"elevationFeet":445,"isPublic":false,"faaIdentifier":"05VA","icaoIdentifier":null,"stateCode":"VA","city":"Farmville"},{"identifier":"05VT","name":"Port Of Highgate Springs","latitude":45.01236666,"longitude":-73.08629722,"elevationFeet":230,"isPublic":false,"faaIdentifier":"05VT","icaoIdentifier":null,"stateCode":"VT","city":"Highgate Springs"},{"identifier":"05WA","name":"Sacred Heart Medical Center Helistop","latitude":47.64912777,"longitude":-117.41307777,"elevationFeet":2220,"isPublic":false,"faaIdentifier":"05WA","icaoIdentifier":null,"stateCode":"WA","city":"Spokane"},{"identifier":"05WI","name":"Ames Private","latitude":42.65112444,"longitude":-88.74593861,"elevationFeet":958,"isPublic":false,"faaIdentifier":"05WI","icaoIdentifier":null,"stateCode":"WI","city":"Darien"},{"identifier":"05WN","name":"Flat Creek Fld","latitude":48.70222222,"longitude":-118.0475,"elevationFeet":1570,"isPublic":false,"faaIdentifier":"05WN","icaoIdentifier":null,"stateCode":"WA","city":"Kettle Falls"},{"identifier":"05XA","name":"Moore County Hospital District","latitude":35.86363055,"longitude":-101.97094444,"elevationFeet":3664,"isPublic":false,"faaIdentifier":"05XA","icaoIdentifier":null,"stateCode":"TX","city":"Dumas"},{"identifier":"05XS","name":"Johnson Meml","latitude":33.0785,"longitude":-91.56183333,"elevationFeet":105,"isPublic":false,"faaIdentifier":"05XS","icaoIdentifier":null,"stateCode":"AR","city":"Wilmot"},{"identifier":"05Y","name":"Henning Muni","latitude":46.30398888,"longitude":-95.44225833,"elevationFeet":1455,"isPublic":true,"faaIdentifier":"05Y","icaoIdentifier":null,"stateCode":"MN","city":"Henning"},{"identifier":"06A","name":"Moton Fld Muni","latitude":32.46047222,"longitude":-85.68002777,"elevationFeet":264,"isPublic":true,"faaIdentifier":"06A","icaoIdentifier":null,"stateCode":"AL","city":"Tuskegee"},{"identifier":"06AA","name":"Twisted Sisters","latitude":60.54013888,"longitude":-150.81361111,"elevationFeet":260,"isPublic":false,"faaIdentifier":"06AA","icaoIdentifier":null,"stateCode":"AK","city":"Sterling"},{"identifier":"06AK","name":"June Lake Airpark","latitude":61.62761944,"longitude":-149.57533055,"elevationFeet":425,"isPublic":false,"faaIdentifier":"06AK","icaoIdentifier":null,"stateCode":"AK","city":"Wasilla"},{"identifier":"06AL","name":"Brown Stagefield Ahp","latitude":31.38843888,"longitude":-85.972425,"elevationFeet":415,"isPublic":false,"faaIdentifier":"06AL","icaoIdentifier":null,"stateCode":"AL","city":"Fort Novosel (New Brockton)"},{"identifier":"06AN","name":"Niesen Airstrip","latitude":60.7338195,"longitude":-151.213594,"elevationFeet":194,"isPublic":false,"faaIdentifier":"06AN","icaoIdentifier":null,"stateCode":"AK","city":"Nikiski"},{"identifier":"06AR","name":"Cy Bond Meml","latitude":35.54452194,"longitude":-92.18487444,"elevationFeet":499,"isPublic":false,"faaIdentifier":"06AR","icaoIdentifier":null,"stateCode":"AR","city":"Higden"},{"identifier":"06AZ","name":"Mercy Gilbert Medical Center","latitude":33.28845833,"longitude":-111.75223333,"elevationFeet":1280,"isPublic":false,"faaIdentifier":"06AZ","icaoIdentifier":null,"stateCode":"AZ","city":"Gilbert"},{"identifier":"06B","name":"Lucky Landing Marina","latitude":44.90701333,"longitude":-68.80503611,"elevationFeet":115,"isPublic":true,"faaIdentifier":"06B","icaoIdentifier":null,"stateCode":"ME","city":"Bangor"},{"identifier":"06C","name":"Schaumburg Rgnl","latitude":41.98934083,"longitude":-88.10124277,"elevationFeet":801,"isPublic":true,"faaIdentifier":"06C","icaoIdentifier":null,"stateCode":"IL","city":"Chicago/Schaumburg"},{"identifier":"06CA","name":"Sce Solar I","latitude":34.86898055,"longitude":-116.83203611,"elevationFeet":1942,"isPublic":false,"faaIdentifier":"06CA","icaoIdentifier":null,"stateCode":"CA","city":"Yermo"},{"identifier":"06CL","name":"Abc7-Tv","latitude":34.15729444,"longitude":-118.28871666,"elevationFeet":520,"isPublic":false,"faaIdentifier":"06CL","icaoIdentifier":null,"stateCode":"CA","city":"Glendale"},{"identifier":"06CO","name":"Jecan","latitude":37.38751388,"longitude":-103.69106111,"elevationFeet":5100,"isPublic":false,"faaIdentifier":"06CO","icaoIdentifier":null,"stateCode":"CO","city":"Branson"},{"identifier":"06D","name":"Rolla Muni/Leonard Krech Fld","latitude":48.88441722,"longitude":-99.62092666,"elevationFeet":1822,"isPublic":true,"faaIdentifier":"06D","icaoIdentifier":null,"stateCode":"ND","city":"Rolla"},{"identifier":"06FA","name":"William P Gwinn","latitude":26.90815305,"longitude":-80.32841402,"elevationFeet":28,"isPublic":false,"faaIdentifier":"06FA","icaoIdentifier":null,"stateCode":"FL","city":"Jupiter"},{"identifier":"06FD","name":"Grass Roots Airpark","latitude":28.64166666,"longitude":-81.885,"elevationFeet":105,"isPublic":false,"faaIdentifier":"06FD","icaoIdentifier":null,"stateCode":"FL","city":"Mascotte"},{"identifier":"06FL","name":"Morton Plant Hospital","latitude":27.95354444,"longitude":-82.80624444,"elevationFeet":3,"isPublic":false,"faaIdentifier":"06FL","icaoIdentifier":null,"stateCode":"FL","city":"Clearwater"},{"identifier":"06GA","name":"Smith","latitude":33.75343972,"longitude":-84.16214027,"elevationFeet":1065,"isPublic":false,"faaIdentifier":"06GA","icaoIdentifier":null,"stateCode":"GA","city":"Redan"},{"identifier":"06I","name":"Patoka Reservoir Landing Area","latitude":38.43338861,"longitude":-86.69110222,"elevationFeet":536,"isPublic":true,"faaIdentifier":"06I","icaoIdentifier":null,"stateCode":"IN","city":"French Lick"},{"identifier":"06IA","name":"Rich Fld","latitude":41.84014166,"longitude":-91.83441388,"elevationFeet":880,"isPublic":false,"faaIdentifier":"06IA","icaoIdentifier":null,"stateCode":"IA","city":"Walford"},{"identifier":"06ID","name":"Larkin","latitude":43.462665,"longitude":-116.35900833,"elevationFeet":2750,"isPublic":false,"faaIdentifier":"06ID","icaoIdentifier":null,"stateCode":"ID","city":"Kuna"},{"identifier":"06IL","name":"Humm","latitude":41.59952777,"longitude":-88.86994444,"elevationFeet":708,"isPublic":false,"faaIdentifier":"06IL","icaoIdentifier":null,"stateCode":"IL","city":"Earlville"},{"identifier":"06IN","name":"Iu Health Bloomington","latitude":39.17833902,"longitude":-86.50150625,"elevationFeet":822,"isPublic":false,"faaIdentifier":"06IN","icaoIdentifier":null,"stateCode":"IN","city":"Bloomington"},{"identifier":"06IS","name":"Sinele Strip","latitude":40.54643166,"longitude":-91.27431583,"elevationFeet":695,"isPublic":false,"faaIdentifier":"06IS","icaoIdentifier":null,"stateCode":"IL","city":"Nauvoo"},{"identifier":"06KY","name":"Air Evac 133","latitude":38.64555555,"longitude":-84.58230555,"elevationFeet":941,"isPublic":false,"faaIdentifier":"06KY","icaoIdentifier":null,"stateCode":"KY","city":"Williamstown"},{"identifier":"06LA","name":"Panther Helicopters Inc","latitude":29.84604,"longitude":-90.02784861,"elevationFeet":0,"isPublic":false,"faaIdentifier":"06LA","icaoIdentifier":null,"stateCode":"LA","city":"Belle Chasse"},{"identifier":"06M","name":"Eupora","latitude":33.53483333,"longitude":-89.31311111,"elevationFeet":450,"isPublic":true,"faaIdentifier":"06M","icaoIdentifier":null,"stateCode":"MS","city":"Eupora"},{"identifier":"06MA","name":"The Barn","latitude":42.69064444,"longitude":-71.60895805,"elevationFeet":210,"isPublic":false,"faaIdentifier":"06MA","icaoIdentifier":null,"stateCode":"MA","city":"Pepperell"},{"identifier":"06MD","name":"Johns Hopkins Bayview Medical Center","latitude":39.29136111,"longitude":-76.54626388,"elevationFeet":132,"isPublic":false,"faaIdentifier":"06MD","icaoIdentifier":null,"stateCode":"MD","city":"Baltimore"},{"identifier":"06ME","name":"Barker","latitude":44.41524722,"longitude":-70.844275,"elevationFeet":649,"isPublic":false,"faaIdentifier":"06ME","icaoIdentifier":null,"stateCode":"ME","city":"Bethel"},{"identifier":"06MI","name":"Henry Ford Jackson Hospital","latitude":42.25111111,"longitude":-84.39138888,"elevationFeet":978,"isPublic":false,"faaIdentifier":"06MI","icaoIdentifier":null,"stateCode":"MI","city":"Jackson"},{"identifier":"06MN","name":"Cutfoot Sioux","latitude":47.51652222,"longitude":-94.08643888,"elevationFeet":1297,"isPublic":false,"faaIdentifier":"06MN","icaoIdentifier":null,"stateCode":"MN","city":"Deer River"},{"identifier":"06MO","name":"Noahs Ark","latitude":39.23087638,"longitude":-94.80153611,"elevationFeet":755,"isPublic":false,"faaIdentifier":"06MO","icaoIdentifier":null,"stateCode":"MO","city":"Waldron"},{"identifier":"06MT","name":"Torgerson","latitude":48.55831722,"longitude":-112.10920361,"elevationFeet":3541,"isPublic":false,"faaIdentifier":"06MT","icaoIdentifier":null,"stateCode":"MT","city":"Ethridge"},{"identifier":"06N","name":"Randall","latitude":41.43191194,"longitude":-74.39156083,"elevationFeet":522,"isPublic":true,"faaIdentifier":"06N","icaoIdentifier":null,"stateCode":"NY","city":"Middletown"},{"identifier":"06NC","name":"Tailwinds","latitude":34.8275,"longitude":-78.93027777,"elevationFeet":163,"isPublic":false,"faaIdentifier":"06NC","icaoIdentifier":null,"stateCode":"NC","city":"St. Pauls"},{"identifier":"06NH","name":"Cole Farm","latitude":42.92842222,"longitude":-70.97311111,"elevationFeet":160,"isPublic":false,"faaIdentifier":"06NH","icaoIdentifier":null,"stateCode":"NH","city":"Kensington"},{"identifier":"06NJ","name":"J&J New Brunswick Helistop","latitude":40.50183719,"longitude":-74.445735,"elevationFeet":23,"isPublic":false,"faaIdentifier":"06NJ","icaoIdentifier":null,"stateCode":"NJ","city":"New Brunswick"},{"identifier":"06NV","name":"Silver Creek","latitude":39.09833333,"longitude":-114.15027777,"elevationFeet":5556,"isPublic":false,"faaIdentifier":"06NV","icaoIdentifier":null,"stateCode":"NV","city":"Baker"},{"identifier":"06NY","name":"Murphy Fld","latitude":42.84277777,"longitude":-76.44527777,"elevationFeet":1100,"isPublic":false,"faaIdentifier":"06NY","icaoIdentifier":null,"stateCode":"NY","city":"Auburn"},{"identifier":"06O1","name":"St Elizabeth Medical Center","latitude":41.11458055,"longitude":-80.65905555,"elevationFeet":1020,"isPublic":false,"faaIdentifier":"06O1","icaoIdentifier":null,"stateCode":"OH","city":"Youngstown"},{"identifier":"06OH","name":"Hal Joy Airfield","latitude":41.50977611,"longitude":-80.59118583,"elevationFeet":1160,"isPublic":false,"faaIdentifier":"06OH","icaoIdentifier":null,"stateCode":"OH","city":"Williamsfield"},{"identifier":"06OI","name":"Green Acres","latitude":39.73477805,"longitude":-84.38222222,"elevationFeet":915,"isPublic":false,"faaIdentifier":"06OI","icaoIdentifier":null,"stateCode":"OH","city":"New Lebanon"},{"identifier":"06PA","name":"Freefall Oz","latitude":41.996,"longitude":-78.2865,"elevationFeet":1440,"isPublic":false,"faaIdentifier":"06PA","icaoIdentifier":null,"stateCode":"PA","city":"Ceres"},{"identifier":"06TA","name":"Glaser Fld","latitude":30.90852027,"longitude":-97.11693638,"elevationFeet":480,"isPublic":false,"faaIdentifier":"06TA","icaoIdentifier":null,"stateCode":"TX","city":"Buckholts"},{"identifier":"06TE","name":"Cavok Airpark","latitude":30.31295833,"longitude":-95.02728472,"elevationFeet":132,"isPublic":false,"faaIdentifier":"06TE","icaoIdentifier":null,"stateCode":"TX","city":"Cleveland"},{"identifier":"06TN","name":"Hunter","latitude":35.69729138,"longitude":-86.9569475,"elevationFeet":640,"isPublic":false,"faaIdentifier":"06TN","icaoIdentifier":null,"stateCode":"TN","city":"Columbia"},{"identifier":"06TS","name":"M Sansom Ranch","latitude":31.42159166,"longitude":-99.836575,"elevationFeet":1810,"isPublic":false,"faaIdentifier":"06TS","icaoIdentifier":null,"stateCode":"TX","city":"Paint Rock"},{"identifier":"06TT","name":"6 Mile Airpark","latitude":30.86002361,"longitude":-100.20199583,"elevationFeet":2165,"isPublic":false,"faaIdentifier":"06TT","icaoIdentifier":null,"stateCode":"TX","city":"Fort Mckavett"},{"identifier":"06TX","name":"Diamond N Ranch","latitude":30.05755,"longitude":-95.81289444,"elevationFeet":215,"isPublic":false,"faaIdentifier":"06TX","icaoIdentifier":null,"stateCode":"TX","city":"Hockley"},{"identifier":"06U","name":"Jackpot/Hayden Fld","latitude":41.97583083,"longitude":-114.65801555,"elevationFeet":5223,"isPublic":true,"faaIdentifier":"06U","icaoIdentifier":null,"stateCode":"NV","city":"Jackpot"},{"identifier":"06VA","name":"Mount Horeb Fld","latitude":38.24901861,"longitude":-78.85530333,"elevationFeet":1160,"isPublic":false,"faaIdentifier":"06VA","icaoIdentifier":null,"stateCode":"VA","city":"Grottoes"},{"identifier":"06WA","name":"N A Degerstrom Yard","latitude":47.68628472,"longitude":-117.19798388,"elevationFeet":2013,"isPublic":false,"faaIdentifier":"06WA","icaoIdentifier":null,"stateCode":"WA","city":"Spokane"},{"identifier":"06WI","name":"Lazy River","latitude":45.40276111,"longitude":-87.85731666,"elevationFeet":720,"isPublic":false,"faaIdentifier":"06WI","icaoIdentifier":null,"stateCode":"WI","city":"Wausaukee"},{"identifier":"06WN","name":"Western Airpark","latitude":46.92498472,"longitude":-122.55303888,"elevationFeet":394,"isPublic":false,"faaIdentifier":"06WN","icaoIdentifier":null,"stateCode":"WA","city":"Yelm"},{"identifier":"06XA","name":"J & W Windy Hill","latitude":33.44598333,"longitude":-96.57079722,"elevationFeet":784,"isPublic":false,"faaIdentifier":"06XA","icaoIdentifier":null,"stateCode":"TX","city":"Van Alstyne"},{"identifier":"06XS","name":"Campbell Fld","latitude":33.32472222,"longitude":-97.04416666,"elevationFeet":546,"isPublic":false,"faaIdentifier":"06XS","icaoIdentifier":null,"stateCode":"TX","city":"Aubrey"},{"identifier":"06Y","name":"Herman Muni","latitude":45.82996055,"longitude":-96.16061444,"elevationFeet":1068,"isPublic":true,"faaIdentifier":"06Y","icaoIdentifier":null,"stateCode":"MN","city":"Herman"},{"identifier":"07A","name":"Franklin Fld","latitude":32.1675925,"longitude":-85.81119666,"elevationFeet":301,"isPublic":true,"faaIdentifier":"07A","icaoIdentifier":null,"stateCode":"AL","city":"Union Springs"},{"identifier":"07AA","name":"Pan Lake Strip","latitude":61.69596388,"longitude":-149.95490277,"elevationFeet":357,"isPublic":false,"faaIdentifier":"07AA","icaoIdentifier":null,"stateCode":"AK","city":"Willow"},{"identifier":"07AL","name":"Tac X Stagefield Ahp","latitude":31.12101388,"longitude":-85.97724166,"elevationFeet":132,"isPublic":false,"faaIdentifier":"07AL","icaoIdentifier":null,"stateCode":"AL","city":"Fort Novosel (Samson)"},{"identifier":"07AN","name":"Bro Majors Airfield","latitude":62.82555586,"longitude":-149.91080747,"elevationFeet":1408,"isPublic":false,"faaIdentifier":"07AN","icaoIdentifier":null,"stateCode":"AK","city":"Trapper Creek"},{"identifier":"07AR","name":"Morrilton","latitude":35.1945275,"longitude":-92.80016611,"elevationFeet":300,"isPublic":false,"faaIdentifier":"07AR","icaoIdentifier":null,"stateCode":"AR","city":"Morrilton"},{"identifier":"07AZ","name":"Peoples Hangar","latitude":33.630113,"longitude":-111.909008,"elevationFeet":1497,"isPublic":false,"faaIdentifier":"07AZ","icaoIdentifier":null,"stateCode":"AZ","city":"Scottsdale"},{"identifier":"07CL","name":"Richvale","latitude":39.49766361,"longitude":-121.77136472,"elevationFeet":100,"isPublic":false,"faaIdentifier":"07CL","icaoIdentifier":null,"stateCode":"CA","city":"Richvale"},{"identifier":"07F","name":"Gladewater Muni","latitude":32.52883333,"longitude":-94.97175,"elevationFeet":296,"isPublic":true,"faaIdentifier":"07F","icaoIdentifier":null,"stateCode":"TX","city":"Gladewater"},{"identifier":"07FA","name":"Ocean Reef Club","latitude":25.32430694,"longitude":-80.27572916,"elevationFeet":6,"isPublic":false,"faaIdentifier":"07FA","icaoIdentifier":null,"stateCode":"FL","city":"Key Largo"},{"identifier":"07FD","name":"University Of Miami Hospital","latitude":25.78777777,"longitude":-80.21555555,"elevationFeet":90,"isPublic":false,"faaIdentifier":"07FD","icaoIdentifier":null,"stateCode":"FL","city":"Miami"},{"identifier":"07FL","name":"Citrus County Mosquito Control Home Base","latitude":28.87688888,"longitude":-82.49108333,"elevationFeet":86,"isPublic":false,"faaIdentifier":"07FL","icaoIdentifier":null,"stateCode":"FL","city":"Lecanto"},{"identifier":"07GA","name":"Alcovy","latitude":33.675,"longitude":-83.76305555,"elevationFeet":750,"isPublic":false,"faaIdentifier":"07GA","icaoIdentifier":null,"stateCode":"GA","city":"Covington"},{"identifier":"07GE","name":"Pope Pate Fld","latitude":31.55566166,"longitude":-83.27848958,"elevationFeet":335,"isPublic":false,"faaIdentifier":"07GE","icaoIdentifier":null,"stateCode":"GA","city":"Ocilla"},{"identifier":"07I","name":"Lake Monroe","latitude":39.06133333,"longitude":-86.44608333,"elevationFeet":538,"isPublic":true,"faaIdentifier":"07I","icaoIdentifier":null,"stateCode":"IN","city":"Bloomington"},{"identifier":"07IA","name":"Hoskins Landing","latitude":40.6478875,"longitude":-95.02135,"elevationFeet":971,"isPublic":false,"faaIdentifier":"07IA","icaoIdentifier":null,"stateCode":"IA","city":"Shambaugh"},{"identifier":"07ID","name":"Shepard Strip","latitude":48.14921,"longitude":-116.99801333,"elevationFeet":2313,"isPublic":false,"faaIdentifier":"07ID","icaoIdentifier":null,"stateCode":"ID","city":"Oldtown"},{"identifier":"07II","name":"St Vincent Jennings Hospital","latitude":39.01060916,"longitude":-85.6408025,"elevationFeet":740,"isPublic":false,"faaIdentifier":"07II","icaoIdentifier":null,"stateCode":"IN","city":"North Vernon"},{"identifier":"07IN","name":"Gray","latitude":39.57365888,"longitude":-85.91387055,"elevationFeet":750,"isPublic":false,"faaIdentifier":"07IN","icaoIdentifier":null,"stateCode":"IN","city":"Boggstown"},{"identifier":"07K","name":"Central City Muni/Larry Reineke Fld","latitude":41.1115613,"longitude":-98.05133561,"elevationFeet":1716,"isPublic":true,"faaIdentifier":"07K","icaoIdentifier":null,"stateCode":"NE","city":"Central City"},{"identifier":"07KS","name":"Heape Fld","latitude":37.73418388,"longitude":-96.93670083,"elevationFeet":1321,"isPublic":false,"faaIdentifier":"07KS","icaoIdentifier":null,"stateCode":"KS","city":"Augusta"},{"identifier":"07KY","name":"Blue Lick","latitude":38.0806225,"longitude":-85.6932925,"elevationFeet":532,"isPublic":false,"faaIdentifier":"07KY","icaoIdentifier":null,"stateCode":"KY","city":"Louisville"},{"identifier":"07LA","name":"Richmond Plantation","latitude":31.053,"longitude":-92.632875,"elevationFeet":150,"isPublic":false,"faaIdentifier":"07LA","icaoIdentifier":null,"stateCode":"LA","city":"Forest Hill"},{"identifier":"07LS","name":"La State Police Troop F","latitude":32.51825,"longitude":-91.9891,"elevationFeet":80,"isPublic":false,"faaIdentifier":"07LS","icaoIdentifier":null,"stateCode":"LA","city":"Monroe"},{"identifier":"07MA","name":"West Pond","latitude":41.9170475,"longitude":-70.70948055,"elevationFeet":149,"isPublic":false,"faaIdentifier":"07MA","icaoIdentifier":null,"stateCode":"MA","city":"Plymouth"},{"identifier":"07MD","name":"Baugher'S Orchard","latitude":39.60904722,"longitude":-77.04799722,"elevationFeet":706,"isPublic":false,"faaIdentifier":"07MD","icaoIdentifier":null,"stateCode":"MD","city":"Westminster"},{"identifier":"07MN","name":"Sleepy Eye Medical Center","latitude":44.29938888,"longitude":-94.72950833,"elevationFeet":1028,"isPublic":false,"faaIdentifier":"07MN","icaoIdentifier":null,"stateCode":"MN","city":"Sleepy Eye"},{"identifier":"07MO","name":"Lake Sexton","latitude":38.65001472,"longitude":-93.61687944,"elevationFeet":880,"isPublic":false,"faaIdentifier":"07MO","icaoIdentifier":null,"stateCode":"MO","city":"Warrensburg"},{"identifier":"07MT","name":"Glasgow Industrial","latitude":48.42109508,"longitude":-106.52771588,"elevationFeet":2762,"isPublic":false,"faaIdentifier":"07MT","icaoIdentifier":null,"stateCode":"MT","city":"Glasgow"},{"identifier":"07N","name":"Bermudian Valley Airpark","latitude":40.01676166,"longitude":-77.00386666,"elevationFeet":470,"isPublic":true,"faaIdentifier":"07N","icaoIdentifier":null,"stateCode":"PA","city":"Kralltown"},{"identifier":"07NC","name":"Hawks Meadow","latitude":34.83320416,"longitude":-80.75117833,"elevationFeet":625,"isPublic":false,"faaIdentifier":"07NC","icaoIdentifier":null,"stateCode":"NC","city":"Waxhaw"},{"identifier":"07NH","name":"Diving Rock","latitude":43.17555555,"longitude":-72.06388888,"elevationFeet":1404,"isPublic":false,"faaIdentifier":"07NH","icaoIdentifier":null,"stateCode":"NH","city":"Washington"},{"identifier":"07NJ","name":"Hackensack Umc Palisades","latitude":40.79375833,"longitude":-73.99479722,"elevationFeet":5,"isPublic":false,"faaIdentifier":"07NJ","icaoIdentifier":null,"stateCode":"NJ","city":"North Bergen"},{"identifier":"07NV","name":"Border Line Farm","latitude":39.10222222,"longitude":-114.05333333,"elevationFeet":5120,"isPublic":false,"faaIdentifier":"07NV","icaoIdentifier":null,"stateCode":"NV","city":"Baker"},{"identifier":"07OK","name":"Pleasant Valley","latitude":34.63340472,"longitude":-99.03368861,"elevationFeet":1322,"isPublic":false,"faaIdentifier":"07OK","icaoIdentifier":null,"stateCode":"OK","city":"Snyder"},{"identifier":"07PA","name":"Dream Air","latitude":41.85308055,"longitude":-80.4072,"elevationFeet":870,"isPublic":false,"faaIdentifier":"07PA","icaoIdentifier":null,"stateCode":"PA","city":"Albion"},{"identifier":"07PN","name":"Folmar","latitude":40.99888888,"longitude":-78.12527777,"elevationFeet":1690,"isPublic":false,"faaIdentifier":"07PN","icaoIdentifier":null,"stateCode":"PA","city":"Grassflat"},{"identifier":"07PR","name":"Advanced Public Health Of Isabela","latitude":18.48941666,"longitude":-67.02631388,"elevationFeet":289,"isPublic":false,"faaIdentifier":"07PR","icaoIdentifier":null,"stateCode":"PR","city":"Isabela"},{"identifier":"07R","name":"Bishop-Windham","latitude":27.61016666,"longitude":-97.75252777,"elevationFeet":55,"isPublic":true,"faaIdentifier":"07R","icaoIdentifier":null,"stateCode":"TX","city":"Bishop"},{"identifier":"07S","name":"Beaumont Hotel","latitude":37.65930416,"longitude":-96.52769166,"elevationFeet":1617,"isPublic":true,"faaIdentifier":"07S","icaoIdentifier":null,"stateCode":"KS","city":"Beaumont"},{"identifier":"07TA","name":"Salaika Aviation","latitude":29.24051944,"longitude":-95.34465833,"elevationFeet":30,"isPublic":false,"faaIdentifier":"07TA","icaoIdentifier":null,"stateCode":"TX","city":"Danbury"},{"identifier":"07TE","name":"Peak 7 Ranch","latitude":33.54407611,"longitude":-97.03158708,"elevationFeet":727,"isPublic":false,"faaIdentifier":"07TE","icaoIdentifier":null,"stateCode":"TX","city":"Gainesville"},